[
    {
      "name": "Hartsfield Jackson Atlanta Intl",
      "city": "Atlanta",
      "country": "United States",
      "iata_code": "ATL",
      "latitude": 33.636719,
      "longitude": -84.428067,
      "links_count": 1826,
      "obj_id": 3682,
      "id": 1
    },
    {
      "name": "Chicago Ohare Intl",
      "city": "Chicago",
      "country": "United States",
      "iata_code": "ORD",
      "latitude": 41.978603,
      "longitude": -87.904842,
      "links_count": 1108,
      "obj_id": 3830,
      "id": 2
    },
    {
      "name": "Capital Intl",
      "city": "Beijing",
      "country": "China",
      "iata_code": "PEK",
      "latitude": 40.080111,
      "longitude": 116.584556,
      "links_count": 1069,
      "obj_id": 3364,
      "id": 3
    },
    {
      "name": "Heathrow",
      "city": "London",
      "country": "United Kingdom",
      "iata_code": "LHR",
      "latitude": 51.4775,
      "longitude": -0.461389,
      "links_count": 1051,
      "obj_id": 507,
      "id": 4
    },
    {
      "name": "Charles De Gaulle",
      "city": "Paris",
      "country": "France",
      "iata_code": "CDG",
      "latitude": 49.012779,
      "longitude": 2.55,
      "links_count": 1041,
      "obj_id": 1382,
      "id": 5
    },
    {
      "name": "Los Angeles Intl",
      "city": "Los Angeles",
      "country": "United States",
      "iata_code": "LAX",
      "latitude": 33.942536,
      "longitude": -118.408075,
      "links_count": 990,
      "obj_id": 3484,
      "id": 6
    },
    {
      "name": "Frankfurt Main",
      "city": "Frankfurt",
      "country": "Germany",
      "iata_code": "FRA",
      "latitude": 50.026421,
      "longitude": 8.543125,
      "links_count": 990,
      "obj_id": 340,
      "id": 7
    },
    {
      "name": "Dallas Fort Worth Intl",
      "city": "Dallas-Fort Worth",
      "country": "United States",
      "iata_code": "DFW",
      "latitude": 32.896828,
      "longitude": -97.037997,
      "links_count": 936,
      "obj_id": 3670,
      "id": 8
    },
    {
      "name": "John F Kennedy Intl",
      "city": "New York",
      "country": "United States",
      "iata_code": "JFK",
      "latitude": 40.639751,
      "longitude": -73.778925,
      "links_count": 911,
      "obj_id": 3797,
      "id": 9
    },
    {
      "name": "Schiphol",
      "city": "Amsterdam",
      "country": "Netherlands",
      "iata_code": "AMS",
      "latitude": 52.308613,
      "longitude": 4.763889,
      "links_count": 903,
      "obj_id": 580,
      "id": 10
    },
    {
      "name": "Pudong",
      "city": "Shanghai",
      "country": "China",
      "iata_code": "PVG",
      "latitude": 31.143378,
      "longitude": 121.805214,
      "links_count": 825,
      "obj_id": 3406,
      "id": 11
    },
    {
      "name": "Changi Intl",
      "city": "Singapore",
      "country": "Singapore",
      "iata_code": "SIN",
      "latitude": 1.350189,
      "longitude": 103.994433,
      "links_count": 820,
      "obj_id": 3316,
      "id": 12
    },
    {
      "name": "Barcelona",
      "city": "Barcelona",
      "country": "Spain",
      "iata_code": "BCN",
      "latitude": 41.297078,
      "longitude": 2.078464,
      "links_count": 783,
      "obj_id": 1218,
      "id": 13
    },
    {
      "name": "Incheon Intl",
      "city": "Seoul",
      "country": "South Korea",
      "iata_code": "ICN",
      "latitude": 37.469075,
      "longitude": 126.450517,
      "links_count": 740,
      "obj_id": 3930,
      "id": 14
    },
    {
      "name": "Denver Intl",
      "city": "Denver",
      "country": "United States",
      "iata_code": "DEN",
      "latitude": 39.861656,
      "longitude": -104.673178,
      "links_count": 735,
      "obj_id": 3751,
      "id": 15
    },
    {
      "name": "Miami Intl",
      "city": "Miami",
      "country": "United States",
      "iata_code": "MIA",
      "latitude": 25.79325,
      "longitude": -80.290556,
      "links_count": 734,
      "obj_id": 3576,
      "id": 16
    },
    {
      "name": "Franz Josef Strauss",
      "city": "Munich",
      "country": "Germany",
      "iata_code": "MUC",
      "latitude": 48.353783,
      "longitude": 11.786086,
      "links_count": 728,
      "obj_id": 346,
      "id": 17
    },
    {
      "name": "Ataturk",
      "city": "Istanbul",
      "country": "Turkey",
      "iata_code": "IST",
      "latitude": 40.976922,
      "longitude": 28.814606,
      "links_count": 719,
      "obj_id": 1701,
      "id": 18
    },
    {
      "name": "Hong Kong Intl",
      "city": "Hong Kong",
      "country": "Hong Kong",
      "iata_code": "HKG",
      "latitude": 22.308919,
      "longitude": 113.914603,
      "links_count": 710,
      "obj_id": 3077,
      "id": 19
    },
    {
      "name": "Dubai Intl",
      "city": "Dubai",
      "country": "United Arab Emirates",
      "iata_code": "DXB",
      "latitude": 25.252778,
      "longitude": 55.364444,
      "links_count": 710,
      "obj_id": 2188,
      "id": 20
    },
    {
      "name": "Gatwick",
      "city": "London",
      "country": "United Kingdom",
      "iata_code": "LGW",
      "latitude": 51.148056,
      "longitude": -0.190278,
      "links_count": 708,
      "obj_id": 502,
      "id": 21
    },
    {
      "name": "Baiyun Intl",
      "city": "Guangzhou",
      "country": "China",
      "iata_code": "CAN",
      "latitude": 23.392436,
      "longitude": 113.298786,
      "links_count": 674,
      "obj_id": 3370,
      "id": 22
    },
    {
      "name": "Fiumicino",
      "city": "Rome",
      "country": "Italy",
      "iata_code": "FCO",
      "latitude": 41.804475,
      "longitude": 12.250797,
      "links_count": 662,
      "obj_id": 1555,
      "id": 23
    },
    {
      "name": "Barajas",
      "city": "Madrid",
      "country": "Spain",
      "iata_code": "MAD",
      "latitude": 40.493556,
      "longitude": -3.566764,
      "links_count": 661,
      "obj_id": 1229,
      "id": 24
    },
    {
      "name": "Suvarnabhumi Intl",
      "city": "Bangkok",
      "country": "Thailand",
      "iata_code": "BKK",
      "latitude": 13.681108,
      "longitude": 100.747283,
      "links_count": 656,
      "obj_id": 3885,
      "id": 25
    },
    {
      "name": "Domododevo",
      "city": "Moscow",
      "country": "Russia",
      "iata_code": "DME",
      "latitude": 55.408611,
      "longitude": 37.906111,
      "links_count": 649,
      "obj_id": 4029,
      "id": 26
    },
    {
      "name": "Shuangliu",
      "city": "Chengdu",
      "country": "China",
      "iata_code": "CTU",
      "latitude": 30.578528,
      "longitude": 103.947086,
      "links_count": 647,
      "obj_id": 3395,
      "id": 27
    },
    {
      "name": "Lester B Pearson Intl",
      "city": "Toronto",
      "country": "Canada",
      "iata_code": "YYZ",
      "latitude": 43.677223,
      "longitude": -79.630556,
      "links_count": 636,
      "obj_id": 193,
      "id": 28
    },
    {
      "name": "Brussels Natl",
      "city": "Brussels",
      "country": "Belgium",
      "iata_code": "BRU",
      "latitude": 50.901389,
      "longitude": 4.484444,
      "links_count": 631,
      "obj_id": 302,
      "id": 29
    },
    {
      "name": "Manchester",
      "city": "Manchester",
      "country": "United Kingdom",
      "iata_code": "MAN",
      "latitude": 53.353744,
      "longitude": -2.27495,
      "links_count": 627,
      "obj_id": 478,
      "id": 30
    },
    {
      "name": "Schwechat",
      "city": "Vienna",
      "country": "Austria",
      "iata_code": "VIE",
      "latitude": 48.110278,
      "longitude": 16.569722,
      "links_count": 616,
      "obj_id": 1613,
      "id": 31
    },
    {
      "name": "Charlotte Douglas Intl",
      "city": "Charlotte",
      "country": "United States",
      "iata_code": "CLT",
      "latitude": 35.214,
      "longitude": -80.943139,
      "links_count": 600,
      "obj_id": 3876,
      "id": 32
    },
    {
      "name": "Philadelphia Intl",
      "city": "Philadelphia",
      "country": "United States",
      "iata_code": "PHL",
      "latitude": 39.871944,
      "longitude": -75.241139,
      "links_count": 576,
      "obj_id": 3752,
      "id": 33
    },
    {
      "name": "Narita Intl",
      "city": "Tokyo",
      "country": "Japan",
      "iata_code": "NRT",
      "latitude": 35.764722,
      "longitude": 140.386389,
      "links_count": 575,
      "obj_id": 2279,
      "id": 34
    },
    {
      "name": "Dusseldorf",
      "city": "Duesseldorf",
      "country": "Germany",
      "iata_code": "DUS",
      "latitude": 51.289453,
      "longitude": 6.766775,
      "links_count": 570,
      "obj_id": 345,
      "id": 35
    },
    {
      "name": "Xianyang",
      "city": "Xi'an",
      "country": "China",
      "iata_code": "XIY",
      "latitude": 34.447119,
      "longitude": 108.751592,
      "links_count": 563,
      "obj_id": 3379,
      "id": 36
    },
    {
      "name": "Son Sant Joan",
      "city": "Palma de Mallorca",
      "country": "Spain",
      "iata_code": "PMI",
      "latitude": 39.55361,
      "longitude": 2.727778,
      "links_count": 548,
      "obj_id": 3998,
      "id": 37
    },
    {
      "name": "Wujiaba",
      "city": "Kunming",
      "country": "China",
      "iata_code": "KMG",
      "latitude": 24.992364,
      "longitude": 102.743536,
      "links_count": 545,
      "obj_id": 3382,
      "id": 38
    },
    {
      "name": "Jiangbei",
      "city": "Chongqing",
      "country": "China",
      "iata_code": "CKG",
      "latitude": 29.719217,
      "longitude": 106.641678,
      "links_count": 540,
      "obj_id": 3393,
      "id": 39
    },
    {
      "name": "Indira Gandhi Intl",
      "city": "Delhi",
      "country": "India",
      "iata_code": "DEL",
      "latitude": 28.5665,
      "longitude": 77.103088,
      "links_count": 527,
      "obj_id": 3093,
      "id": 40
    },
    {
      "name": "Taoyuan Intl",
      "city": "Taipei",
      "country": "Taiwan",
      "iata_code": "TPE",
      "latitude": 25.077731,
      "longitude": 121.232822,
      "links_count": 527,
      "obj_id": 2276,
      "id": 41
    },
    {
      "name": "Kuala Lumpur Intl",
      "city": "Kuala Lumpur",
      "country": "Malaysia",
      "iata_code": "KUL",
      "latitude": 2.745578,
      "longitude": 101.709917,
      "links_count": 514,
      "obj_id": 3304,
      "id": 42
    },
    {
      "name": "Phoenix Sky Harbor Intl",
      "city": "Phoenix",
      "country": "United States",
      "iata_code": "PHX",
      "latitude": 33.434278,
      "longitude": -112.011583,
      "links_count": 508,
      "obj_id": 3462,
      "id": 43
    },
    {
      "name": "Xiaoshan",
      "city": "Hangzhou",
      "country": "China",
      "iata_code": "HGH",
      "latitude": 30.229503,
      "longitude": 120.434453,
      "links_count": 506,
      "obj_id": 3386,
      "id": 44
    },
    {
      "name": "Newark Liberty Intl",
      "city": "Newark",
      "country": "United States",
      "iata_code": "EWR",
      "latitude": 40.6925,
      "longitude": -74.168667,
      "links_count": 505,
      "obj_id": 3494,
      "id": 45
    },
    {
      "name": "San Francisco Intl",
      "city": "San Francisco",
      "country": "United States",
      "iata_code": "SFO",
      "latitude": 37.618972,
      "longitude": -122.374889,
      "links_count": 499,
      "obj_id": 3469,
      "id": 46
    },
    {
      "name": "Mc Carran Intl",
      "city": "Las Vegas",
      "country": "United States",
      "iata_code": "LAS",
      "latitude": 36.080056,
      "longitude": -115.15225,
      "links_count": 498,
      "obj_id": 3877,
      "id": 47
    },
    {
      "name": "Zurich",
      "city": "Zurich",
      "country": "Switzerland",
      "iata_code": "ZRH",
      "latitude": 47.464722,
      "longitude": 8.549167,
      "links_count": 494,
      "obj_id": 1678,
      "id": 48
    },
    {
      "name": "George Bush Intercontinental",
      "city": "Houston",
      "country": "United States",
      "iata_code": "IAH",
      "latitude": 29.984433,
      "longitude": -95.341442,
      "links_count": 485,
      "obj_id": 3550,
      "id": 49
    },
    {
      "name": "Licenciado Benito Juarez Intl",
      "city": "Mexico City",
      "country": "Mexico",
      "iata_code": "MEX",
      "latitude": 19.436303,
      "longitude": -99.072097,
      "links_count": 485,
      "obj_id": 1824,
      "id": 50
    },
    {
      "name": "Abu Dhabi Intl",
      "city": "Abu Dhabi",
      "country": "United Arab Emirates",
      "iata_code": "AUH",
      "latitude": 24.432972,
      "longitude": 54.651138,
      "links_count": 477,
      "obj_id": 2179,
      "id": 51
    },
    {
      "name": "Orlando Intl",
      "city": "Orlando",
      "country": "United States",
      "iata_code": "MCO",
      "latitude": 28.429394,
      "longitude": -81.308994,
      "links_count": 475,
      "obj_id": 3878,
      "id": 52
    },
    {
      "name": "Baoan Intl",
      "city": "Shenzhen",
      "country": "China",
      "iata_code": "SZX",
      "latitude": 22.639258,
      "longitude": 113.810664,
      "links_count": 467,
      "obj_id": 3374,
      "id": 53
    },
    {
      "name": "Gaoqi",
      "city": "Xiamen",
      "country": "China",
      "iata_code": "XMN",
      "latitude": 24.544036,
      "longitude": 118.127739,
      "links_count": 466,
      "obj_id": 3383,
      "id": 54
    },
    {
      "name": "Kastrup",
      "city": "Copenhagen",
      "country": "Denmark",
      "iata_code": "CPH",
      "latitude": 55.617917,
      "longitude": 12.655972,
      "links_count": 457,
      "obj_id": 609,
      "id": 55
    },
    {
      "name": "Chhatrapati Shivaji Intl",
      "city": "Mumbai",
      "country": "India",
      "iata_code": "BOM",
      "latitude": 19.088686,
      "longitude": 72.867919,
      "links_count": 452,
      "obj_id": 2997,
      "id": 56
    },
    {
      "name": "Arlanda",
      "city": "Stockholm",
      "country": "Sweden",
      "iata_code": "ARN",
      "latitude": 59.651944,
      "longitude": 17.918611,
      "links_count": 439,
      "obj_id": 737,
      "id": 57
    },
    {
      "name": "Lisboa",
      "city": "Lisbon",
      "country": "Portugal",
      "iata_code": "LIS",
      "latitude": 38.781311,
      "longitude": -9.135919,
      "links_count": 435,
      "obj_id": 1638,
      "id": 58
    },
    {
      "name": "Detroit Metro Wayne Co",
      "city": "Detroit",
      "country": "United States",
      "iata_code": "DTW",
      "latitude": 42.212444,
      "longitude": -83.353389,
      "links_count": 433,
      "obj_id": 3645,
      "id": 59
    },
    {
      "name": "Minneapolis St Paul Intl",
      "city": "Minneapolis",
      "country": "United States",
      "iata_code": "MSP",
      "latitude": 44.881956,
      "longitude": -93.221767,
      "links_count": 430,
      "obj_id": 3858,
      "id": 60
    },
    {
      "name": "General Edward Lawrence Logan Intl",
      "city": "Boston",
      "country": "United States",
      "iata_code": "BOS",
      "latitude": 42.364347,
      "longitude": -71.005181,
      "links_count": 424,
      "obj_id": 3448,
      "id": 61
    },
    {
      "name": "Tegel",
      "city": "Berlin",
      "country": "Germany",
      "iata_code": "TXL",
      "latitude": 52.559686,
      "longitude": 13.287711,
      "links_count": 418,
      "obj_id": 351,
      "id": 62
    },
    {
      "name": "Dublin",
      "city": "Dublin",
      "country": "Ireland",
      "iata_code": "DUB",
      "latitude": 53.421333,
      "longitude": -6.270075,
      "links_count": 414,
      "obj_id": 599,
      "id": 63
    },
    {
      "name": "Hongqiao Intl",
      "city": "Shanghai",
      "country": "China",
      "iata_code": "SHA",
      "latitude": 31.197875,
      "longitude": 121.336319,
      "links_count": 411,
      "obj_id": 3391,
      "id": 64
    },
    {
      "name": "Sydney Intl",
      "city": "Sydney",
      "country": "Australia",
      "iata_code": "SYD",
      "latitude": -33.946111,
      "longitude": 151.177222,
      "links_count": 410,
      "obj_id": 3361,
      "id": 65
    },
    {
      "name": "Malaga",
      "city": "Malaga",
      "country": "Spain",
      "iata_code": "AGP",
      "latitude": 36.6749,
      "longitude": -4.499106,
      "links_count": 410,
      "obj_id": 1230,
      "id": 66
    },
    {
      "name": "Orly",
      "city": "Paris",
      "country": "France",
      "iata_code": "ORY",
      "latitude": 48.725278,
      "longitude": 2.359444,
      "links_count": 404,
      "obj_id": 1386,
      "id": 67
    },
    {
      "name": "Eleftherios Venizelos Intl",
      "city": "Athens",
      "country": "Greece",
      "iata_code": "ATH",
      "latitude": 37.936358,
      "longitude": 23.944467,
      "links_count": 403,
      "obj_id": 3941,
      "id": 68
    },
    {
      "name": "Seattle Tacoma Intl",
      "city": "Seattle",
      "country": "United States",
      "iata_code": "SEA",
      "latitude": 47.449,
      "longitude": -122.309306,
      "links_count": 403,
      "obj_id": 3577,
      "id": 69
    },
    {
      "name": "Sheremetyevo",
      "city": "Moscow",
      "country": "Russia",
      "iata_code": "SVO",
      "latitude": 55.972642,
      "longitude": 37.414589,
      "links_count": 397,
      "obj_id": 2985,
      "id": 70
    },
    {
      "name": "Ronald Reagan Washington Natl",
      "city": "Washington",
      "country": "United States",
      "iata_code": "DCA",
      "latitude": 38.852083,
      "longitude": -77.037722,
      "links_count": 388,
      "obj_id": 3520,
      "id": 71
    },
    {
      "name": "Guarulhos Gov Andre Franco Montouro",
      "city": "Sao Paulo",
      "country": "Brazil",
      "iata_code": "GRU",
      "latitude": -23.432075,
      "longitude": -46.469511,
      "links_count": 387,
      "obj_id": 2564,
      "id": 72
    },
    {
      "name": "Washington Dulles Intl",
      "city": "Washington",
      "country": "United States",
      "iata_code": "IAD",
      "latitude": 38.944533,
      "longitude": -77.455811,
      "links_count": 386,
      "obj_id": 3714,
      "id": 73
    },
    {
      "name": "Ninoy Aquino Intl",
      "city": "Manila",
      "country": "Philippines",
      "iata_code": "MNL",
      "latitude": 14.508647,
      "longitude": 121.019581,
      "links_count": 386,
      "obj_id": 2397,
      "id": 74
    },
    {
      "name": "Malpensa",
      "city": "Milano",
      "country": "Italy",
      "iata_code": "MXP",
      "latitude": 45.630606,
      "longitude": 8.728111,
      "links_count": 386,
      "obj_id": 1524,
      "id": 75
    },
    {
      "name": "Huanghua",
      "city": "Changcha",
      "country": "China",
      "iata_code": "CSX",
      "latitude": 28.189158,
      "longitude": 113.219633,
      "links_count": 377,
      "obj_id": 3371,
      "id": 76
    },
    {
      "name": "Doha Intl",
      "city": "Doha",
      "country": "Qatar",
      "iata_code": "DOH",
      "latitude": 25.261125,
      "longitude": 51.565056,
      "links_count": 377,
      "obj_id": 2241,
      "id": 77
    },
    {
      "name": "King Abdulaziz Intl",
      "city": "Jeddah",
      "country": "Saudi Arabia",
      "iata_code": "JED",
      "latitude": 21.679564,
      "longitude": 39.156536,
      "links_count": 377,
      "obj_id": 2072,
      "id": 78
    },
    {
      "name": "Liuting",
      "city": "Qingdao",
      "country": "China",
      "iata_code": "TAO",
      "latitude": 36.266108,
      "longitude": 120.374436,
      "links_count": 376,
      "obj_id": 3390,
      "id": 79
    },
    {
      "name": "Fort Lauderdale Hollywood Intl",
      "city": "Fort Lauderdale",
      "country": "United States",
      "iata_code": "FLL",
      "latitude": 26.072583,
      "longitude": -80.15275,
      "links_count": 374,
      "obj_id": 3533,
      "id": 80
    },
    {
      "name": "Tianhe",
      "city": "Wuhan",
      "country": "China",
      "iata_code": "WUH",
      "latitude": 30.783758,
      "longitude": 114.2081,
      "links_count": 374,
      "obj_id": 3376,
      "id": 81
    },
    {
      "name": "Pierre Elliott Trudeau Intl",
      "city": "Montreal",
      "country": "Canada",
      "iata_code": "YUL",
      "latitude": 45.470556,
      "longitude": -73.740833,
      "links_count": 371,
      "obj_id": 146,
      "id": 82
    },
    {
      "name": "Pulkovo",
      "city": "St. Petersburg",
      "country": "Russia",
      "iata_code": "LED",
      "latitude": 59.800292,
      "longitude": 30.262503,
      "links_count": 368,
      "obj_id": 2948,
      "id": 83
    },
    {
      "name": "Soekarno Hatta Intl",
      "city": "Jakarta",
      "country": "Indonesia",
      "iata_code": "CGK",
      "latitude": -6.125567,
      "longitude": 106.655897,
      "links_count": 367,
      "obj_id": 3275,
      "id": 84
    },
    {
      "name": "Gardermoen",
      "city": "Oslo",
      "country": "Norway",
      "iata_code": "OSL",
      "latitude": 60.193917,
      "longitude": 11.100361,
      "links_count": 363,
      "obj_id": 644,
      "id": 85
    },
    {
      "name": "Ruzyne",
      "city": "Prague",
      "country": "Czech Republic",
      "iata_code": "PRG",
      "latitude": 50.100833,
      "longitude": 14.26,
      "links_count": 361,
      "obj_id": 1587,
      "id": 86
    },
    {
      "name": "Xinzheng",
      "city": "Zhengzhou",
      "country": "China",
      "iata_code": "CGO",
      "latitude": 34.519672,
      "longitude": 113.840889,
      "links_count": 348,
      "obj_id": 3375,
      "id": 87
    },
    {
      "name": "Stansted",
      "city": "London",
      "country": "United Kingdom",
      "iata_code": "STN",
      "latitude": 51.885,
      "longitude": 0.235,
      "links_count": 343,
      "obj_id": 548,
      "id": 88
    },
    {
      "name": "Lukou",
      "city": "Nanjing",
      "country": "China",
      "iata_code": "NKG",
      "latitude": 31.742042,
      "longitude": 118.862025,
      "links_count": 330,
      "obj_id": 3388,
      "id": 89
    },
    {
      "name": "Geneve Cointrin",
      "city": "Geneva",
      "country": "Switzerland",
      "iata_code": "GVA",
      "latitude": 46.238064,
      "longitude": 6.10895,
      "links_count": 329,
      "obj_id": 1665,
      "id": 90
    },
    {
      "name": "Johannesburg Intl",
      "city": "Johannesburg",
      "country": "South Africa",
      "iata_code": "JNB",
      "latitude": -26.139166,
      "longitude": 28.246,
      "links_count": 321,
      "obj_id": 813,
      "id": 91
    },
    {
      "name": "Hamburg",
      "city": "Hamburg",
      "country": "Germany",
      "iata_code": "HAM",
      "latitude": 53.630389,
      "longitude": 9.988228,
      "links_count": 321,
      "obj_id": 342,
      "id": 92
    },
    {
      "name": "Helsinki Vantaa",
      "city": "Helsinki",
      "country": "Finland",
      "iata_code": "HEL",
      "latitude": 60.317222,
      "longitude": 24.963333,
      "links_count": 320,
      "obj_id": 421,
      "id": 93
    },
    {
      "name": "Tenerife Sur",
      "city": "Tenerife",
      "country": "Spain",
      "iata_code": "TFS",
      "latitude": 28.044475,
      "longitude": -16.572489,
      "links_count": 318,
      "obj_id": 1056,
      "id": 94
    },
    {
      "name": "La Guardia",
      "city": "New York",
      "country": "United States",
      "iata_code": "LGA",
      "latitude": 40.777245,
      "longitude": -73.872608,
      "links_count": 316,
      "obj_id": 3697,
      "id": 95
    },
    {
      "name": "Tokyo Intl",
      "city": "Tokyo",
      "country": "Japan",
      "iata_code": "HND",
      "latitude": 35.552258,
      "longitude": 139.779694,
      "links_count": 315,
      "obj_id": 2359,
      "id": 96
    },
    {
      "name": "Vancouver Intl",
      "city": "Vancouver",
      "country": "Canada",
      "iata_code": "YVR",
      "latitude": 49.193889,
      "longitude": -123.184444,
      "links_count": 315,
      "obj_id": 156,
      "id": 97
    },
    {
      "name": "Alicante",
      "city": "Alicante",
      "country": "Spain",
      "iata_code": "ALC",
      "latitude": 38.282169,
      "longitude": -0.558156,
      "links_count": 314,
      "obj_id": 1212,
      "id": 98
    },
    {
      "name": "Cancun Intl",
      "city": "Cancun",
      "country": "Mexico",
      "iata_code": "CUN",
      "latitude": 21.036528,
      "longitude": -86.877083,
      "links_count": 311,
      "obj_id": 1852,
      "id": 99
    },
    {
      "name": "Gran Canaria",
      "city": "Gran Canaria",
      "country": "Spain",
      "iata_code": "LPA",
      "latitude": 27.931886,
      "longitude": -15.386586,
      "links_count": 308,
      "obj_id": 1054,
      "id": 100
    },
    {
      "name": "Eldorado Intl",
      "city": "Bogota",
      "country": "Colombia",
      "iata_code": "BOG",
      "latitude": 4.701594,
      "longitude": -74.146947,
      "links_count": 307,
      "obj_id": 2709,
      "id": 101
    },
    {
      "name": "Diwopu",
      "city": "Urumqi",
      "country": "China",
      "iata_code": "URC",
      "latitude": 43.907106,
      "longitude": 87.474244,
      "links_count": 306,
      "obj_id": 3399,
      "id": 102
    },
    {
      "name": "Kansai",
      "city": "Osaka",
      "country": "Japan",
      "iata_code": "KIX",
      "latitude": 34.4347222,
      "longitude": 135.244167,
      "links_count": 304,
      "obj_id": 3992,
      "id": 103
    },
    {
      "name": "Cairo Intl",
      "city": "Cairo",
      "country": "Egypt",
      "iata_code": "CAI",
      "latitude": 30.121944,
      "longitude": 31.405556,
      "links_count": 303,
      "obj_id": 1128,
      "id": 104
    },
    {
      "name": "Brisbane Intl",
      "city": "Brisbane",
      "country": "Australia",
      "iata_code": "BNE",
      "latitude": -27.384167,
      "longitude": 153.1175,
      "links_count": 296,
      "obj_id": 3320,
      "id": 105
    },
    {
      "name": "Binhai",
      "city": "Tianjin",
      "country": "China",
      "iata_code": "TSN",
      "latitude": 39.124353,
      "longitude": 117.346183,
      "links_count": 294,
      "obj_id": 3368,
      "id": 106
    },
    {
      "name": "Sabiha Gokcen",
      "city": "Istanbul",
      "country": "Turkey",
      "iata_code": "SAW",
      "latitude": 40.898553,
      "longitude": 29.309219,
      "links_count": 290,
      "obj_id": 4317,
      "id": 107
    },
    {
      "name": "Baltimore Washington Intl",
      "city": "Baltimore",
      "country": "United States",
      "iata_code": "BWI",
      "latitude": 39.175361,
      "longitude": -76.668333,
      "links_count": 286,
      "obj_id": 3849,
      "id": 108
    },
    {
      "name": "Zhoushuizi",
      "city": "Dalian",
      "country": "China",
      "iata_code": "DLC",
      "latitude": 38.965667,
      "longitude": 121.5386,
      "links_count": 285,
      "obj_id": 3404,
      "id": 109
    },
    {
      "name": "Salt Lake City Intl",
      "city": "Salt Lake City",
      "country": "United States",
      "iata_code": "SLC",
      "latitude": 40.788389,
      "longitude": -111.977772,
      "links_count": 278,
      "obj_id": 3536,
      "id": 110
    },
    {
      "name": "Tampa Intl",
      "city": "Tampa",
      "country": "United States",
      "iata_code": "TPA",
      "latitude": 27.975472,
      "longitude": -82.53325,
      "links_count": 276,
      "obj_id": 3646,
      "id": 111
    },
    {
      "name": "King Khaled Intl",
      "city": "Riyadh",
      "country": "Saudi Arabia",
      "iata_code": "RUH",
      "latitude": 24.95764,
      "longitude": 46.698776,
      "links_count": 276,
      "obj_id": 2082,
      "id": 112
    },
    {
      "name": "Saint Exupery",
      "city": "Lyon",
      "country": "France",
      "iata_code": "LYS",
      "latitude": 45.726387,
      "longitude": 5.090833,
      "links_count": 275,
      "obj_id": 1335,
      "id": 113
    },
    {
      "name": "Longdongbao",
      "city": "Guiyang",
      "country": "China",
      "iata_code": "KWE",
      "latitude": 26.538522,
      "longitude": 106.800703,
      "links_count": 274,
      "obj_id": 3394,
      "id": 114
    },
    {
      "name": "Stuttgart",
      "city": "Stuttgart",
      "country": "Germany",
      "iata_code": "STR",
      "latitude": 48.689878,
      "longitude": 9.221964,
      "links_count": 273,
      "obj_id": 350,
      "id": 115
    },
    {
      "name": "Shenyang Taoxian International Airport",
      "city": "Shenyang",
      "country": "China",
      "iata_code": "SHE",
      "latitude": 41.3824,
      "longitude": 123.2901,
      "links_count": 272,
      "obj_id": 4144,
      "id": 116
    },
    {
      "name": "Chicago Midway Intl",
      "city": "Chicago",
      "country": "United States",
      "iata_code": "MDW",
      "latitude": 41.785972,
      "longitude": -87.752417,
      "links_count": 271,
      "obj_id": 3747,
      "id": 117
    },
    {
      "name": "Ben Gurion",
      "city": "Tel-aviv",
      "country": "Israel",
      "iata_code": "TLV",
      "latitude": 32.011389,
      "longitude": 34.886667,
      "links_count": 271,
      "obj_id": 1590,
      "id": 118
    },
    {
      "name": "Jinan",
      "city": "Jinan",
      "country": "China",
      "iata_code": "TNA",
      "latitude": 36.857214,
      "longitude": 117.215992,
      "links_count": 270,
      "obj_id": 4108,
      "id": 119
    },
    {
      "name": "Melbourne Intl",
      "city": "Melbourne",
      "country": "Australia",
      "iata_code": "MEL",
      "latitude": -37.673333,
      "longitude": 144.843333,
      "links_count": 269,
      "obj_id": 3339,
      "id": 120
    },
    {
      "name": "Cote D\\\\'Azur",
      "city": "Nice",
      "country": "France",
      "iata_code": "NCE",
      "latitude": 43.658411,
      "longitude": 7.215872,
      "links_count": 269,
      "obj_id": 1354,
      "id": 121
    },
    {
      "name": "Changle",
      "city": "Fuzhou",
      "country": "China",
      "iata_code": "FOC",
      "latitude": 25.935064,
      "longitude": 119.663272,
      "links_count": 266,
      "obj_id": 3385,
      "id": 122
    },
    {
      "name": "Koln Bonn",
      "city": "Cologne",
      "country": "Germany",
      "iata_code": "CGN",
      "latitude": 50.865917,
      "longitude": 7.142744,
      "links_count": 265,
      "obj_id": 344,
      "id": 123
    },
    {
      "name": "Provence",
      "city": "Marseille",
      "country": "France",
      "iata_code": "MRS",
      "latitude": 43.435555,
      "longitude": 5.213611,
      "links_count": 265,
      "obj_id": 1353,
      "id": 124
    },
    {
      "name": "Birmingham",
      "city": "Birmingham",
      "country": "United Kingdom",
      "iata_code": "BHX",
      "latitude": 52.453856,
      "longitude": -1.748028,
      "links_count": 264,
      "obj_id": 469,
      "id": 125
    },
    {
      "name": "Taiping",
      "city": "Harbin",
      "country": "China",
      "iata_code": "HRB",
      "latitude": 45.623403,
      "longitude": 126.250328,
      "links_count": 259,
      "obj_id": 3400,
      "id": 126
    },
    {
      "name": "Jomo Kenyatta International",
      "city": "Nairobi",
      "country": "Kenya",
      "iata_code": "NBO",
      "latitude": -1.319167,
      "longitude": 36.9275,
      "links_count": 258,
      "obj_id": 4059,
      "id": 127
    },
    {
      "name": "Antalya",
      "city": "Antalya",
      "country": "Turkey",
      "iata_code": "AYT",
      "latitude": 36.898731,
      "longitude": 30.800461,
      "links_count": 253,
      "obj_id": 1688,
      "id": 128
    },
    {
      "name": "Mohammed V Intl",
      "city": "Casablanca",
      "country": "Morocco",
      "iata_code": "CMN",
      "latitude": 33.367467,
      "longitude": -7.589967,
      "links_count": 250,
      "obj_id": 1074,
      "id": 129
    },
    {
      "name": "Louis Armstrong New Orleans Intl",
      "city": "New Orleans",
      "country": "United States",
      "iata_code": "MSY",
      "latitude": 29.993389,
      "longitude": -90.258028,
      "links_count": 248,
      "obj_id": 3861,
      "id": 130
    },
    {
      "name": "Venezia Tessera",
      "city": "Venice",
      "country": "Italy",
      "iata_code": "VCE",
      "latitude": 45.505278,
      "longitude": 12.351944,
      "links_count": 245,
      "obj_id": 1551,
      "id": 131
    },
    {
      "name": "Okecie",
      "city": "Warsaw",
      "country": "Poland",
      "iata_code": "WAW",
      "latitude": 52.16575,
      "longitude": 20.967122,
      "links_count": 240,
      "obj_id": 679,
      "id": 132
    },
    {
      "name": "Kuwait Intl",
      "city": "Kuwait",
      "country": "Kuwait",
      "iata_code": "KWI",
      "latitude": 29.226567,
      "longitude": 47.968928,
      "links_count": 239,
      "obj_id": 2176,
      "id": 133
    },
    {
      "name": "San Diego Intl",
      "city": "San Diego",
      "country": "United States",
      "iata_code": "SAN",
      "latitude": 32.733556,
      "longitude": -117.189667,
      "links_count": 238,
      "obj_id": 3731,
      "id": 134
    },
    {
      "name": "Edinburgh",
      "city": "Edinburgh",
      "country": "United Kingdom",
      "iata_code": "EDI",
      "latitude": 55.95,
      "longitude": -3.3725,
      "links_count": 237,
      "obj_id": 535,
      "id": 135
    },
    {
      "name": "Honolulu Intl",
      "city": "Honolulu",
      "country": "United States",
      "iata_code": "HNL",
      "latitude": 21.318681,
      "longitude": -157.922428,
      "links_count": 233,
      "obj_id": 3728,
      "id": 136
    },
    {
      "name": "Catania Fontanarossa",
      "city": "Catania",
      "country": "Italy",
      "iata_code": "CTA",
      "latitude": 37.466781,
      "longitude": 15.0664,
      "links_count": 233,
      "obj_id": 1509,
      "id": 137
    },
    {
      "name": "Lanzarote",
      "city": "Las Palmas",
      "country": "Spain",
      "iata_code": "ACE",
      "latitude": 28.945464,
      "longitude": -13.605225,
      "links_count": 233,
      "obj_id": 1055,
      "id": 138
    },
    {
      "name": "Portland Intl",
      "city": "Portland",
      "country": "United States",
      "iata_code": "PDX",
      "latitude": 45.588722,
      "longitude": -122.5975,
      "links_count": 230,
      "obj_id": 3720,
      "id": 139
    },
    {
      "name": "Jorge Chavez Intl",
      "city": "Lima",
      "country": "Peru",
      "iata_code": "LIM",
      "latitude": -12.021889,
      "longitude": -77.114319,
      "links_count": 230,
      "obj_id": 2789,
      "id": 140
    },
    {
      "name": "Wuxu",
      "city": "Nanning",
      "country": "China",
      "iata_code": "NNG",
      "latitude": 22.608267,
      "longitude": 108.172442,
      "links_count": 228,
      "obj_id": 3373,
      "id": 141
    },
    {
      "name": "Calgary Intl",
      "city": "Calgary",
      "country": "Canada",
      "iata_code": "YYC",
      "latitude": 51.113888,
      "longitude": -114.020278,
      "links_count": 228,
      "obj_id": 178,
      "id": 142
    },
    {
      "name": "Henri Coanda",
      "city": "Bucharest",
      "country": "Romania",
      "iata_code": "OTP",
      "latitude": 44.572161,
      "longitude": 26.102178,
      "links_count": 227,
      "obj_id": 1657,
      "id": 143
    },
    {
      "name": "Luqa",
      "city": "Malta",
      "country": "Malta",
      "iata_code": "MLA",
      "latitude": 35.857497,
      "longitude": 14.4775,
      "links_count": 226,
      "obj_id": 1606,
      "id": 144
    },
    {
      "name": "Queen Alia Intl",
      "city": "Amman",
      "country": "Jordan",
      "iata_code": "AMM",
      "latitude": 31.722556,
      "longitude": 35.993214,
      "links_count": 223,
      "obj_id": 2170,
      "id": 145
    },
    {
      "name": "Lambert St Louis Intl",
      "city": "St. Louis",
      "country": "United States",
      "iata_code": "STL",
      "latitude": 38.748697,
      "longitude": -90.370028,
      "links_count": 221,
      "obj_id": 3678,
      "id": 146
    },
    {
      "name": "Wusu",
      "city": "Taiyuan",
      "country": "China",
      "iata_code": "TYN",
      "latitude": 37.746897,
      "longitude": 112.628428,
      "links_count": 220,
      "obj_id": 3369,
      "id": 147
    },
    {
      "name": "Nikos Kazantzakis",
      "city": "Heraklion",
      "country": "Greece",
      "iata_code": "HER",
      "latitude": 35.339719,
      "longitude": 25.180297,
      "links_count": 219,
      "obj_id": 1452,
      "id": 148
    },
    {
      "name": "Phoenix International",
      "city": "Sanya",
      "country": "China",
      "iata_code": "SYX",
      "latitude": 18.302897,
      "longitude": 109.412272,
      "links_count": 218,
      "obj_id": 4030,
      "id": 149
    },
    {
      "name": "Tansonnhat Intl",
      "city": "Ho Chi Minh City",
      "country": "Vietnam",
      "iata_code": "SGN",
      "latitude": 10.818797,
      "longitude": 106.651856,
      "links_count": 218,
      "obj_id": 3205,
      "id": 150
    },
    {
      "name": "Meilan",
      "city": "Haikou",
      "country": "China",
      "iata_code": "HAK",
      "latitude": 19.934856,
      "longitude": 110.458961,
      "links_count": 215,
      "obj_id": 4120,
      "id": 151
    },
    {
      "name": "Luton",
      "city": "London",
      "country": "United Kingdom",
      "iata_code": "LTN",
      "latitude": 51.874722,
      "longitude": -0.368333,
      "links_count": 214,
      "obj_id": 492,
      "id": 152
    },
    {
      "name": "Liangjiang",
      "city": "Guilin",
      "country": "China",
      "iata_code": "KWL",
      "latitude": 25.218106,
      "longitude": 110.039197,
      "links_count": 214,
      "obj_id": 3372,
      "id": 153
    },
    {
      "name": "Bole Intl",
      "city": "Addis Ababa",
      "country": "Ethiopia",
      "iata_code": "ADD",
      "latitude": 8.977889,
      "longitude": 38.799319,
      "links_count": 214,
      "obj_id": 1107,
      "id": 154
    },
    {
      "name": "Auckland Intl",
      "city": "Auckland",
      "country": "New Zealand",
      "iata_code": "AKL",
      "latitude": -37.008056,
      "longitude": 174.791667,
      "links_count": 213,
      "obj_id": 2006,
      "id": 155
    },
    {
      "name": "Tocumen Intl",
      "city": "Panama City",
      "country": "Panama",
      "iata_code": "PTY",
      "latitude": 9.071364,
      "longitude": -79.383453,
      "links_count": 212,
      "obj_id": 1871,
      "id": 156
    },
    {
      "name": "Chennai Intl",
      "city": "Madras",
      "country": "India",
      "iata_code": "MAA",
      "latitude": 12.994414,
      "longitude": 80.180517,
      "links_count": 211,
      "obj_id": 3144,
      "id": 157
    },
    {
      "name": "Faro",
      "city": "Faro",
      "country": "Portugal",
      "iata_code": "FAO",
      "latitude": 37.014425,
      "longitude": -7.965911,
      "links_count": 211,
      "obj_id": 1626,
      "id": 158
    },
    {
      "name": "Seeb Intl",
      "city": "Muscat",
      "country": "Oman",
      "iata_code": "MCT",
      "latitude": 23.593278,
      "longitude": 58.284444,
      "links_count": 208,
      "obj_id": 2194,
      "id": 159
    },
    {
      "name": "Luis Munoz Marin Intl",
      "city": "San Juan",
      "country": "Puerto Rico",
      "iata_code": "SJU",
      "latitude": 18.439417,
      "longitude": -66.001833,
      "links_count": 204,
      "obj_id": 2890,
      "id": 160
    },
    {
      "name": "Bandaranaike Intl Colombo",
      "city": "Colombo",
      "country": "Sri Lanka",
      "iata_code": "CMB",
      "latitude": 7.180756,
      "longitude": 79.884117,
      "links_count": 203,
      "obj_id": 3024,
      "id": 161
    },
    {
      "name": "Riga Intl",
      "city": "Riga",
      "country": "Latvia",
      "iata_code": "RIX",
      "latitude": 56.923611,
      "longitude": 23.971111,
      "links_count": 202,
      "obj_id": 3953,
      "id": 162
    },
    {
      "name": "Boryspil Intl",
      "city": "Kiev",
      "country": "Ukraine",
      "iata_code": "KBP",
      "latitude": 50.345,
      "longitude": 30.894722,
      "links_count": 202,
      "obj_id": 2939,
      "id": 163
    },
    {
      "name": "Porto",
      "city": "Porto",
      "country": "Portugal",
      "iata_code": "OPO",
      "latitude": 41.248055,
      "longitude": -8.681389,
      "links_count": 202,
      "obj_id": 1636,
      "id": 164
    },
    {
      "name": "Ibiza",
      "city": "Ibiza",
      "country": "Spain",
      "iata_code": "IBZ",
      "latitude": 38.872858,
      "longitude": 1.373117,
      "links_count": 202,
      "obj_id": 1225,
      "id": 165
    },
    {
      "name": "Bali Ngurah Rai",
      "city": "Denpasar",
      "country": "Indonesia",
      "iata_code": "DPS",
      "latitude": -8.748169,
      "longitude": 115.167172,
      "links_count": 201,
      "obj_id": 3940,
      "id": 166
    },
    {
      "name": "Bristol",
      "city": "Bristol",
      "country": "United Kingdom",
      "iata_code": "BRS",
      "latitude": 51.382669,
      "longitude": -2.719089,
      "links_count": 200,
      "obj_id": 490,
      "id": 167
    },
    {
      "name": "Koltsovo",
      "city": "Yekaterinburg",
      "country": "Russia",
      "iata_code": "SVX",
      "latitude": 56.743108,
      "longitude": 60.802728,
      "links_count": 199,
      "obj_id": 2975,
      "id": 168
    },
    {
      "name": "Presidente Juscelino Kubitschek",
      "city": "Brasilia",
      "country": "Brazil",
      "iata_code": "BSB",
      "latitude": -15.8711,
      "longitude": -47.918625,
      "links_count": 197,
      "obj_id": 2531,
      "id": 169
    },
    {
      "name": "Glasgow",
      "city": "Glasgow",
      "country": "United Kingdom",
      "iata_code": "GLA",
      "latitude": 55.871944,
      "longitude": -4.433056,
      "links_count": 196,
      "obj_id": 534,
      "id": 170
    },
    {
      "name": "Bangalore",
      "city": "Bangalore",
      "country": "India",
      "iata_code": "BLR",
      "latitude": 12.949986,
      "longitude": 77.668206,
      "links_count": 195,
      "obj_id": 3131,
      "id": 171
    },
    {
      "name": "Sharjah Intl",
      "city": "Sharjah",
      "country": "United Arab Emirates",
      "iata_code": "SHJ",
      "latitude": 25.328575,
      "longitude": 55.51715,
      "links_count": 195,
      "obj_id": 2191,
      "id": 172
    },
    {
      "name": "Ferihegy",
      "city": "Budapest",
      "country": "Hungary",
      "iata_code": "BUD",
      "latitude": 47.436933,
      "longitude": 19.255592,
      "links_count": 195,
      "obj_id": 1489,
      "id": 173
    },
    {
      "name": "Netaji Subhash Chandra Bose Intl",
      "city": "Kolkata",
      "country": "India",
      "iata_code": "CCU",
      "latitude": 22.654739,
      "longitude": 88.446722,
      "links_count": 194,
      "obj_id": 3043,
      "id": 174
    },
    {
      "name": "Galeao Antonio Carlos Jobim",
      "city": "Rio De Janeiro",
      "country": "Brazil",
      "iata_code": "GIG",
      "latitude": -22.808903,
      "longitude": -43.243647,
      "links_count": 194,
      "obj_id": 2560,
      "id": 175
    },
    {
      "name": "Nottingham East Midlands",
      "city": "East Midlands",
      "country": "United Kingdom",
      "iata_code": "EMA",
      "latitude": 52.831111,
      "longitude": -1.328056,
      "links_count": 192,
      "obj_id": 523,
      "id": 176
    },
    {
      "name": "Fuerteventura",
      "city": "Fuerteventura",
      "country": "Spain",
      "iata_code": "FUE",
      "latitude": 28.452717,
      "longitude": -13.863761,
      "links_count": 192,
      "obj_id": 1051,
      "id": 177
    },
    {
      "name": "Larnaca",
      "city": "Larnaca",
      "country": "Cyprus",
      "iata_code": "LCA",
      "latitude": 34.875117,
      "longitude": 33.62485,
      "links_count": 190,
      "obj_id": 1197,
      "id": 178
    },
    {
      "name": "EuroAirport Basel-Mulhouse-Freiburg",
      "city": "Basel",
      "country": "Switzerland",
      "iata_code": "BSL",
      "latitude": 47.59,
      "longitude": 7.529167,
      "links_count": 189,
      "obj_id": 4053,
      "id": 179
    },
    {
      "name": "Don Miguel Hidalgo Y Costilla Intl",
      "city": "Guadalajara",
      "country": "Mexico",
      "iata_code": "GDL",
      "latitude": 20.5218,
      "longitude": -103.311167,
      "links_count": 185,
      "obj_id": 1804,
      "id": 180
    },
    {
      "name": "Nantes Atlantique",
      "city": "Nantes",
      "country": "France",
      "iata_code": "NTE",
      "latitude": 47.153189,
      "longitude": -1.610725,
      "links_count": 183,
      "obj_id": 1418,
      "id": 181
    },
    {
      "name": "Perth Intl",
      "city": "Perth",
      "country": "Australia",
      "iata_code": "PER",
      "latitude": -31.940278,
      "longitude": 115.966944,
      "links_count": 182,
      "obj_id": 3351,
      "id": 182
    },
    {
      "name": "Simon Bolivar Intl",
      "city": "Caracas",
      "country": "Venezuela",
      "iata_code": "CCS",
      "latitude": 10.603117,
      "longitude": -66.990583,
      "links_count": 181,
      "obj_id": 2851,
      "id": 183
    },
    {
      "name": "Tolmachevo",
      "city": "Novosibirsk",
      "country": "Russia",
      "iata_code": "OVB",
      "latitude": 55.012622,
      "longitude": 82.650656,
      "links_count": 177,
      "obj_id": 4078,
      "id": 184
    },
    {
      "name": "Houari Boumediene",
      "city": "Algier",
      "country": "Algeria",
      "iata_code": "ALG",
      "latitude": 36.691014,
      "longitude": 3.215408,
      "links_count": 176,
      "obj_id": 210,
      "id": 185
    },
    {
      "name": "Bologna",
      "city": "Bologna",
      "country": "Italy",
      "iata_code": "BLQ",
      "latitude": 44.535444,
      "longitude": 11.288667,
      "links_count": 176,
      "obj_id": 1538,
      "id": 186
    },
    {
      "name": "Carthage",
      "city": "Tunis",
      "country": "Tunisia",
      "iata_code": "TUN",
      "latitude": 36.851033,
      "longitude": 10.227217,
      "links_count": 175,
      "obj_id": 287,
      "id": 187
    },
    {
      "name": "Baita Airport",
      "city": "Hohhot",
      "country": "China",
      "iata_code": "HET",
      "latitude": 40.851422,
      "longitude": 111.824103,
      "links_count": 174,
      "obj_id": 6345,
      "id": 188
    },
    {
      "name": "Noibai Intl",
      "city": "Hanoi",
      "country": "Vietnam",
      "iata_code": "HAN",
      "latitude": 21.221192,
      "longitude": 105.807178,
      "links_count": 174,
      "obj_id": 3199,
      "id": 189
    },
    {
      "name": "Makedonia",
      "city": "Thessaloniki",
      "country": "Greece",
      "iata_code": "SKG",
      "latitude": 40.519725,
      "longitude": 22.97095,
      "links_count": 174,
      "obj_id": 1486,
      "id": 190
    },
    {
      "name": "Changbei Intl",
      "city": "Nanchang",
      "country": "China",
      "iata_code": "KHN",
      "latitude": 28.865,
      "longitude": 115.9,
      "links_count": 172,
      "obj_id": 3384,
      "id": 191
    },
    {
      "name": "Vnukovo",
      "city": "Moscow",
      "country": "Russia",
      "iata_code": "VKO",
      "latitude": 55.591531,
      "longitude": 37.261486,
      "links_count": 171,
      "obj_id": 2988,
      "id": 192
    },
    {
      "name": "Beograd",
      "city": "Belgrade",
      "country": "Serbia",
      "iata_code": "BEG",
      "latitude": 44.818444,
      "longitude": 20.309139,
      "links_count": 171,
      "obj_id": 1739,
      "id": 193
    },
    {
      "name": "Fukuoka",
      "city": "Fukuoka",
      "country": "Japan",
      "iata_code": "FUK",
      "latitude": 33.585942,
      "longitude": 130.450686,
      "links_count": 170,
      "obj_id": 2305,
      "id": 194
    },
    {
      "name": "Bahrain Intl",
      "city": "Bahrain",
      "country": "Bahrain",
      "iata_code": "BAH",
      "latitude": 26.270834,
      "longitude": 50.63361,
      "links_count": 170,
      "obj_id": 2057,
      "id": 195
    },
    {
      "name": "Chubu Centrair Intl",
      "city": "Nagoya",
      "country": "Japan",
      "iata_code": "NGO",
      "latitude": 34.858414,
      "longitude": 136.805408,
      "links_count": 169,
      "obj_id": 3942,
      "id": 196
    },
    {
      "name": "Lanzhou Airport",
      "city": "Lanzhou",
      "country": "China",
      "iata_code": "LHW",
      "latitude": 36.117,
      "longitude": 103.617,
      "links_count": 168,
      "obj_id": 6431,
      "id": 197
    },
    {
      "name": "Lishe",
      "city": "Ninbo",
      "country": "China",
      "iata_code": "NGB",
      "latitude": 29.826683,
      "longitude": 121.461906,
      "links_count": 168,
      "obj_id": 3387,
      "id": 198
    },
    {
      "name": "Brussels South",
      "city": "Charleroi",
      "country": "Belgium",
      "iata_code": "CRL",
      "latitude": 50.459197,
      "longitude": 4.453817,
      "links_count": 168,
      "obj_id": 304,
      "id": 199
    },
    {
      "name": "Rhodes Diagoras",
      "city": "Rhodos",
      "country": "Greece",
      "iata_code": "RHO",
      "latitude": 36.405419,
      "longitude": 28.086192,
      "links_count": 168,
      "obj_id": 1472,
      "id": 200
    },
    {
      "name": "Austin Bergstrom Intl",
      "city": "Austin",
      "country": "United States",
      "iata_code": "AUS",
      "latitude": 30.194528,
      "longitude": -97.669889,
      "links_count": 167,
      "obj_id": 3673,
      "id": 201
    },
    {
      "name": "Raleigh Durham Intl",
      "city": "Raleigh-durham",
      "country": "United States",
      "iata_code": "RDU",
      "latitude": 35.877639,
      "longitude": -78.787472,
      "links_count": 167,
      "obj_id": 3626,
      "id": 202
    },
    {
      "name": "Newcastle",
      "city": "Newcastle",
      "country": "United Kingdom",
      "iata_code": "NCL",
      "latitude": 55.0375,
      "longitude": -1.691667,
      "links_count": 165,
      "obj_id": 521,
      "id": 203
    },
    {
      "name": "Schonefeld",
      "city": "Berlin",
      "country": "Germany",
      "iata_code": "SXF",
      "latitude": 52.380001,
      "longitude": 13.5225,
      "links_count": 165,
      "obj_id": 337,
      "id": 204
    },
    {
      "name": "Shijiazhuang Daguocun International Airport",
      "city": "Shijiazhuang",
      "country": "China",
      "iata_code": "SJW",
      "latitude": 38.280686,
      "longitude": 114.6973,
      "links_count": 164,
      "obj_id": 6347,
      "id": 205
    },
    {
      "name": "Nashville Intl",
      "city": "Nashville",
      "country": "United States",
      "iata_code": "BNA",
      "latitude": 36.124472,
      "longitude": -86.678194,
      "links_count": 164,
      "obj_id": 3690,
      "id": 206
    },
    {
      "name": "King Fahd Intl",
      "city": "Dammam",
      "country": "Saudi Arabia",
      "iata_code": "DMM",
      "latitude": 26.471161,
      "longitude": 49.79789,
      "links_count": 164,
      "obj_id": 2064,
      "id": 207
    },
    {
      "name": "Valencia",
      "city": "Valencia",
      "country": "Spain",
      "iata_code": "VLC",
      "latitude": 39.489314,
      "longitude": -0.481625,
      "links_count": 163,
      "obj_id": 1246,
      "id": 208
    },
    {
      "name": "Wenzhou Yongqiang Airport",
      "city": "Wenzhou",
      "country": "China",
      "iata_code": "WNZ",
      "latitude": 27.9122,
      "longitude": 120.852,
      "links_count": 162,
      "obj_id": 6392,
      "id": 209
    },
    {
      "name": "New Chitose",
      "city": "Sapporo",
      "country": "Japan",
      "iata_code": "CTS",
      "latitude": 42.7752,
      "longitude": 141.692283,
      "links_count": 162,
      "obj_id": 2287,
      "id": 210
    },
    {
      "name": "Bergamo Orio Al Serio",
      "city": "Bergamo",
      "country": "Italy",
      "iata_code": "BGY",
      "latitude": 45.673889,
      "longitude": 9.704166,
      "links_count": 162,
      "obj_id": 1525,
      "id": 211
    },
    {
      "name": "Cleveland Hopkins Intl",
      "city": "Cleveland",
      "country": "United States",
      "iata_code": "CLE",
      "latitude": 41.411689,
      "longitude": -81.849794,
      "links_count": 161,
      "obj_id": 3486,
      "id": 212
    },
    {
      "name": "Blagnac",
      "city": "Toulouse",
      "country": "France",
      "iata_code": "TLS",
      "latitude": 43.629075,
      "longitude": 1.363819,
      "links_count": 161,
      "obj_id": 1273,
      "id": 213
    },
    {
      "name": "Beijing Nanyuan Airport",
      "city": "Beijing",
      "country": "China",
      "iata_code": "NAY",
      "latitude": 39.7825,
      "longitude": 116.387778,
      "links_count": 160,
      "obj_id": 6341,
      "id": 214
    },
    {
      "name": "Leeds Bradford",
      "city": "Leeds",
      "country": "United Kingdom",
      "iata_code": "LBA",
      "latitude": 53.865897,
      "longitude": -1.660569,
      "links_count": 160,
      "obj_id": 517,
      "id": 215
    },
    {
      "name": "Yuzhny",
      "city": "Tashkent",
      "country": "Uzbekistan",
      "iata_code": "TAS",
      "latitude": 41.257861,
      "longitude": 69.281186,
      "links_count": 160,
      "obj_id": 2983,
      "id": 216
    },
    {
      "name": "Gimhae Intl",
      "city": "Busan",
      "country": "South Korea",
      "iata_code": "PUS",
      "latitude": 35.179528,
      "longitude": 128.938222,
      "links_count": 160,
      "obj_id": 2372,
      "id": 217
    },
    {
      "name": "Kansas City Intl",
      "city": "Kansas City",
      "country": "United States",
      "iata_code": "MCI",
      "latitude": 39.297606,
      "longitude": -94.713905,
      "links_count": 159,
      "obj_id": 3458,
      "id": 218
    },
    {
      "name": "Macau Intl",
      "city": "Macau",
      "country": "Macau",
      "iata_code": "MFM",
      "latitude": 22.149556,
      "longitude": 113.591558,
      "links_count": 158,
      "obj_id": 3121,
      "id": 219
    },
    {
      "name": "Arturo Merino Benitez Intl",
      "city": "Santiago",
      "country": "Chile",
      "iata_code": "SCL",
      "latitude": -33.392975,
      "longitude": -70.785803,
      "links_count": 158,
      "obj_id": 2650,
      "id": 220
    },
    {
      "name": "Capodichino",
      "city": "Naples",
      "country": "Italy",
      "iata_code": "NAP",
      "latitude": 40.886033,
      "longitude": 14.290781,
      "links_count": 158,
      "obj_id": 1561,
      "id": 221
    },
    {
      "name": "Luogang",
      "city": "Hefei",
      "country": "China",
      "iata_code": "HFE",
      "latitude": 31.780019,
      "longitude": 117.298436,
      "links_count": 154,
      "obj_id": 3389,
      "id": 222
    },
    {
      "name": "Hannover",
      "city": "Hannover",
      "country": "Germany",
      "iata_code": "HAJ",
      "latitude": 52.461056,
      "longitude": 9.685078,
      "links_count": 152,
      "obj_id": 352,
      "id": 223
    },
    {
      "name": "Pisa",
      "city": "Pisa",
      "country": "Italy",
      "iata_code": "PSA",
      "latitude": 43.683917,
      "longitude": 10.39275,
      "links_count": 152,
      "obj_id": 1562,
      "id": 224
    },
    {
      "name": "Cincinnati Northern Kentucky Intl",
      "city": "Cincinnati",
      "country": "United States",
      "iata_code": "CVG",
      "latitude": 39.048836,
      "longitude": -84.667822,
      "links_count": 150,
      "obj_id": 3488,
      "id": 225
    },
    {
      "name": "Ministro Pistarini",
      "city": "Buenos Aires",
      "country": "Argentina",
      "iata_code": "EZE",
      "latitude": -34.822222,
      "longitude": -58.535833,
      "links_count": 149,
      "obj_id": 3988,
      "id": 226
    },
    {
      "name": "William P Hobby",
      "city": "Houston",
      "country": "United States",
      "iata_code": "HOU",
      "latitude": 29.645419,
      "longitude": -95.278889,
      "links_count": 149,
      "obj_id": 3566,
      "id": 227
    },
    {
      "name": "Juan Santamaria Intl",
      "city": "San Jose",
      "country": "Costa Rica",
      "iata_code": "SJO",
      "latitude": 9.993861,
      "longitude": -84.208806,
      "links_count": 149,
      "obj_id": 1885,
      "id": 228
    },
    {
      "name": "Pittsburgh Intl",
      "city": "Pittsburgh",
      "country": "United States",
      "iata_code": "PIT",
      "latitude": 40.491467,
      "longitude": -80.232872,
      "links_count": 148,
      "obj_id": 3570,
      "id": 229
    },
    {
      "name": "Zia Intl",
      "city": "Dhaka",
      "country": "Bangladesh",
      "iata_code": "DAC",
      "latitude": 23.843333,
      "longitude": 90.397781,
      "links_count": 148,
      "obj_id": 3076,
      "id": 230
    },
    {
      "name": "Hyderabad",
      "city": "Hyderabad",
      "country": "India",
      "iata_code": "HYD",
      "latitude": 17.453117,
      "longitude": 78.467586,
      "links_count": 147,
      "obj_id": 3141,
      "id": 231
    },
    {
      "name": "General Mariano Escobedo Intl",
      "city": "Monterrey",
      "country": "Mexico",
      "iata_code": "MTY",
      "latitude": 25.778489,
      "longitude": -100.106878,
      "links_count": 145,
      "obj_id": 1825,
      "id": 232
    },
    {
      "name": "Menara",
      "city": "Marrakech",
      "country": "Morocco",
      "iata_code": "RAK",
      "latitude": 31.606886,
      "longitude": -8.0363,
      "links_count": 145,
      "obj_id": 1075,
      "id": 233
    },
    {
      "name": "Punta Cana Intl",
      "city": "Punta Cana",
      "country": "Dominican Republic",
      "iata_code": "PUJ",
      "latitude": 18.567367,
      "longitude": -68.363431,
      "links_count": 143,
      "obj_id": 1760,
      "id": 234
    },
    {
      "name": "Luxembourg",
      "city": "Luxemburg",
      "country": "Luxembourg",
      "iata_code": "LUX",
      "latitude": 49.626575,
      "longitude": 6.211517,
      "links_count": 140,
      "obj_id": 629,
      "id": 235
    },
    {
      "name": "Edmonton Intl",
      "city": "Edmonton",
      "country": "Canada",
      "iata_code": "YEG",
      "latitude": 53.309723,
      "longitude": -113.579722,
      "links_count": 139,
      "obj_id": 49,
      "id": 236
    },
    {
      "name": "Indianapolis Intl",
      "city": "Indianapolis",
      "country": "United States",
      "iata_code": "IND",
      "latitude": 39.717331,
      "longitude": -86.294383,
      "links_count": 138,
      "obj_id": 3585,
      "id": 237
    },
    {
      "name": "Phuket Intl",
      "city": "Phuket",
      "country": "Thailand",
      "iata_code": "HKT",
      "latitude": 8.1132,
      "longitude": 98.316872,
      "links_count": 138,
      "obj_id": 3179,
      "id": 238
    },
    {
      "name": "Flesland",
      "city": "Bergen",
      "country": "Norway",
      "iata_code": "BGO",
      "latitude": 60.293386,
      "longitude": 5.218142,
      "links_count": 137,
      "obj_id": 636,
      "id": 239
    },
    {
      "name": "San Antonio Intl",
      "city": "San Antonio",
      "country": "United States",
      "iata_code": "SAT",
      "latitude": 29.533694,
      "longitude": -98.469778,
      "links_count": 136,
      "obj_id": 3621,
      "id": 240
    },
    {
      "name": "Eindhoven",
      "city": "Eindhoven",
      "country": "Netherlands",
      "iata_code": "EIN",
      "latitude": 51.450139,
      "longitude": 5.374528,
      "links_count": 135,
      "obj_id": 585,
      "id": 241
    },
    {
      "name": "Lynden Pindling Intl",
      "city": "Nassau",
      "country": "Bahamas",
      "iata_code": "NAS",
      "latitude": 25.038958,
      "longitude": -77.466231,
      "links_count": 135,
      "obj_id": 1953,
      "id": 242
    },
    {
      "name": "Don Muang Intl",
      "city": "Bangkok",
      "country": "Thailand",
      "iata_code": "DMK",
      "latitude": 13.912583,
      "longitude": 100.60675,
      "links_count": 134,
      "obj_id": 3157,
      "id": 243
    },
    {
      "name": "Almaty",
      "city": "Alma-ata",
      "country": "Kazakhstan",
      "iata_code": "ALA",
      "latitude": 43.352072,
      "longitude": 77.040508,
      "links_count": 134,
      "obj_id": 2908,
      "id": 244
    },
    {
      "name": "Merignac",
      "city": "Bordeaux",
      "country": "France",
      "iata_code": "BOD",
      "latitude": 44.828335,
      "longitude": -0.715556,
      "links_count": 134,
      "obj_id": 1264,
      "id": 245
    },
    {
      "name": "Leopold Sedar Senghor Intl",
      "city": "Dakar",
      "country": "Senegal",
      "iata_code": "DKR",
      "latitude": 14.739708,
      "longitude": -17.490225,
      "links_count": 134,
      "obj_id": 1084,
      "id": 246
    },
    {
      "name": "Rafic Hariri Intl",
      "city": "Beirut",
      "country": "Lebanon",
      "iata_code": "BEY",
      "latitude": 33.820931,
      "longitude": 35.488389,
      "links_count": 133,
      "obj_id": 2177,
      "id": 247
    },
    {
      "name": "Adnan Menderes",
      "city": "Izmir",
      "country": "Turkey",
      "iata_code": "ADB",
      "latitude": 38.292392,
      "longitude": 27.156953,
      "links_count": 133,
      "obj_id": 1706,
      "id": 248
    },
    {
      "name": "Sofia",
      "city": "Sofia",
      "country": "Bulgaria",
      "iata_code": "SOF",
      "latitude": 42.695194,
      "longitude": 23.406167,
      "links_count": 132,
      "obj_id": 1194,
      "id": 249
    },
    {
      "name": "Changchun",
      "city": "Changchun",
      "country": "China",
      "iata_code": "CGQ",
      "latitude": 43.5412,
      "longitude": 125.1201,
      "links_count": 131,
      "obj_id": 4380,
      "id": 250
    },
    {
      "name": "Yinchuan",
      "city": "Yinchuan",
      "country": "China",
      "iata_code": "INC",
      "latitude": 38.481944,
      "longitude": 106.009167,
      "links_count": 131,
      "obj_id": 4085,
      "id": 251
    },
    {
      "name": "Juanda",
      "city": "Surabaya",
      "country": "Indonesia",
      "iata_code": "SUB",
      "latitude": -7.379831,
      "longitude": 112.786858,
      "links_count": 131,
      "obj_id": 3928,
      "id": 252
    },
    {
      "name": "Lijiang Airport",
      "city": "Lijiang",
      "country": "China",
      "iata_code": "LJG",
      "latitude": 26.883333,
      "longitude": 100.23333,
      "links_count": 129,
      "obj_id": 4033,
      "id": 253
    },
    {
      "name": "Kaohsiung Intl",
      "city": "Kaohsiung",
      "country": "Taiwan",
      "iata_code": "KHH",
      "latitude": 22.577094,
      "longitude": 120.350006,
      "links_count": 129,
      "obj_id": 2264,
      "id": 254
    },
    {
      "name": "City",
      "city": "London",
      "country": "United Kingdom",
      "iata_code": "LCY",
      "latitude": 51.505278,
      "longitude": 0.055278,
      "links_count": 128,
      "obj_id": 503,
      "id": 255
    },
    {
      "name": "Mashhad",
      "city": "Mashhad",
      "country": "Iran",
      "iata_code": "MHD",
      "latitude": 36.234,
      "longitude": 59.643,
      "links_count": 128,
      "obj_id": 4331,
      "id": 256
    },
    {
      "name": "Southwest Florida Intl",
      "city": "Fort Myers",
      "country": "United States",
      "iata_code": "RSW",
      "latitude": 26.536167,
      "longitude": -81.755167,
      "links_count": 128,
      "obj_id": 3793,
      "id": 257
    },
    {
      "name": "Port Columbus Intl",
      "city": "Columbus",
      "country": "United States",
      "iata_code": "CMH",
      "latitude": 39.997972,
      "longitude": -82.891889,
      "links_count": 128,
      "obj_id": 3759,
      "id": 258
    },
    {
      "name": "Heydar Aliyev",
      "city": "Baku",
      "country": "Azerbaijan",
      "iata_code": "GYD",
      "latitude": 40.4675,
      "longitude": 50.046667,
      "links_count": 128,
      "obj_id": 2922,
      "id": 259
    },
    {
      "name": "Aeroparque Jorge Newbery",
      "city": "Buenos Aires",
      "country": "Argentina",
      "iata_code": "AEP",
      "latitude": -34.559175,
      "longitude": -58.415606,
      "links_count": 128,
      "obj_id": 2442,
      "id": 260
    },
    {
      "name": "Bilbao",
      "city": "Bilbao",
      "country": "Spain",
      "iata_code": "BIO",
      "latitude": 43.301097,
      "longitude": -2.910608,
      "links_count": 128,
      "obj_id": 1216,
      "id": 261
    },
    {
      "name": "Sevilla",
      "city": "Sevilla",
      "country": "Spain",
      "iata_code": "SVQ",
      "latitude": 37.418,
      "longitude": -5.893106,
      "links_count": 127,
      "obj_id": 1253,
      "id": 262
    },
    {
      "name": "Palermo",
      "city": "Palermo",
      "country": "Italy",
      "iata_code": "PMO",
      "latitude": 38.175958,
      "longitude": 13.091019,
      "links_count": 126,
      "obj_id": 1512,
      "id": 263
    },
    {
      "name": "General Mitchell Intl",
      "city": "Milwaukee",
      "country": "United States",
      "iata_code": "MKE",
      "latitude": 42.947222,
      "longitude": -87.896583,
      "links_count": 125,
      "obj_id": 3717,
      "id": 264
    },
    {
      "name": "Jinnah Intl",
      "city": "Karachi",
      "country": "Pakistan",
      "iata_code": "KHI",
      "latitude": 24.906547,
      "longitude": 67.160797,
      "links_count": 125,
      "obj_id": 2206,
      "id": 265
    },
    {
      "name": "Mehrabad Intl",
      "city": "Teheran",
      "country": "Iran",
      "iata_code": "THR",
      "latitude": 35.689167,
      "longitude": 51.313416,
      "links_count": 125,
      "obj_id": 2131,
      "id": 266
    },
    {
      "name": "Naha",
      "city": "Okinawa",
      "country": "Japan",
      "iata_code": "OKA",
      "latitude": 26.195814,
      "longitude": 127.645869,
      "links_count": 123,
      "obj_id": 2384,
      "id": 267
    },
    {
      "name": "Imam Khomeini",
      "city": "Tehran",
      "country": "Iran",
      "iata_code": "IKA",
      "latitude": 35.416111,
      "longitude": 51.152222,
      "links_count": 122,
      "obj_id": 4330,
      "id": 268
    },
    {
      "name": "Dubrovnik",
      "city": "Dubrovnik",
      "country": "Croatia",
      "iata_code": "DBV",
      "latitude": 42.561353,
      "longitude": 18.268244,
      "links_count": 121,
      "obj_id": 1200,
      "id": 269
    },
    {
      "name": "Norman Y Mineta San Jose Intl",
      "city": "San Jose",
      "country": "United States",
      "iata_code": "SJC",
      "latitude": 37.3626,
      "longitude": -121.929022,
      "links_count": 120,
      "obj_id": 3748,
      "id": 270
    },
    {
      "name": "Linate",
      "city": "Milan",
      "country": "Italy",
      "iata_code": "LIN",
      "latitude": 45.445103,
      "longitude": 9.276739,
      "links_count": 120,
      "obj_id": 1529,
      "id": 271
    },
    {
      "name": "Tille",
      "city": "Beauvais",
      "country": "France",
      "iata_code": "BVA",
      "latitude": 49.454444,
      "longitude": 2.112778,
      "links_count": 120,
      "obj_id": 1367,
      "id": 272
    },
    {
      "name": "Zhuhai Airport",
      "city": "Zhuhai",
      "country": "China",
      "iata_code": "ZUH",
      "latitude": 22.0064,
      "longitude": 113.376,
      "links_count": 119,
      "obj_id": 6355,
      "id": 273
    },
    {
      "name": "Murtala Muhammed",
      "city": "Lagos",
      "country": "Nigeria",
      "iata_code": "LOS",
      "latitude": 6.577369,
      "longitude": 3.321156,
      "links_count": 119,
      "obj_id": 273,
      "id": 274
    },
    {
      "name": "Ted Stevens Anchorage Intl",
      "city": "Anchorage",
      "country": "United States",
      "iata_code": "ANC",
      "latitude": 61.174361,
      "longitude": -149.996361,
      "links_count": 118,
      "obj_id": 3774,
      "id": 275
    },
    {
      "name": "Cochin",
      "city": "Kochi",
      "country": "India",
      "iata_code": "COK",
      "latitude": 10.155556,
      "longitude": 76.391389,
      "links_count": 118,
      "obj_id": 3136,
      "id": 276
    },
    {
      "name": "Jeju Intl",
      "city": "Cheju",
      "country": "South Korea",
      "iata_code": "CJU",
      "latitude": 33.511306,
      "longitude": 126.493028,
      "links_count": 118,
      "obj_id": 2370,
      "id": 277
    },
    {
      "name": "Chaklala",
      "city": "Islamabad",
      "country": "Pakistan",
      "iata_code": "ISB",
      "latitude": 33.616653,
      "longitude": 73.099233,
      "links_count": 117,
      "obj_id": 2223,
      "id": 278
    },
    {
      "name": "Liverpool",
      "city": "Liverpool",
      "country": "United Kingdom",
      "iata_code": "LPL",
      "latitude": 53.333611,
      "longitude": -2.849722,
      "links_count": 116,
      "obj_id": 491,
      "id": 279
    },
    {
      "name": "Vilnius Intl",
      "city": "Vilnius",
      "country": "Lithuania",
      "iata_code": "VNO",
      "latitude": 54.634133,
      "longitude": 25.285767,
      "links_count": 116,
      "obj_id": 3959,
      "id": 280
    },
    {
      "name": "Deputado Luis Eduardo Magalhaes",
      "city": "Salvador",
      "country": "Brazil",
      "iata_code": "SSA",
      "latitude": -12.910994,
      "longitude": -38.331044,
      "links_count": 116,
      "obj_id": 2621,
      "id": 281
    },
    {
      "name": "Dalaman",
      "city": "Dalaman",
      "country": "Turkey",
      "iata_code": "DLM",
      "latitude": 36.713056,
      "longitude": 28.7925,
      "links_count": 116,
      "obj_id": 1715,
      "id": 282
    },
    {
      "name": "Balice",
      "city": "Krakow",
      "country": "Poland",
      "iata_code": "KRK",
      "latitude": 50.077731,
      "longitude": 19.784836,
      "links_count": 114,
      "obj_id": 669,
      "id": 283
    },
    {
      "name": "Princess Juliana Intl",
      "city": "Philipsburg",
      "country": "Netherlands Antilles",
      "iata_code": "SXM",
      "latitude": 18.040953,
      "longitude": -63.1089,
      "links_count": 114,
      "obj_id": 2899,
      "id": 284
    },
    {
      "name": "Viracopos",
      "city": "Campinas",
      "country": "Brazil",
      "iata_code": "VCP",
      "latitude": -23.0075,
      "longitude": -47.134444,
      "links_count": 114,
      "obj_id": 2578,
      "id": 285
    },
    {
      "name": "Memphis Intl",
      "city": "Memphis",
      "country": "United States",
      "iata_code": "MEM",
      "latitude": 35.042417,
      "longitude": -89.976667,
      "links_count": 112,
      "obj_id": 3473,
      "id": 286
    },
    {
      "name": "Laishan",
      "city": "Yantai",
      "country": "China",
      "iata_code": "YNT",
      "latitude": 37.401667,
      "longitude": 121.371667,
      "links_count": 112,
      "obj_id": 3392,
      "id": 287
    },
    {
      "name": "Hasanuddin",
      "city": "Ujung Pandang",
      "country": "Indonesia",
      "iata_code": "UPG",
      "latitude": -5.061631,
      "longitude": 119.554042,
      "links_count": 112,
      "obj_id": 3240,
      "id": 288
    },
    {
      "name": "Metropolitan Oakland Intl",
      "city": "Oakland",
      "country": "United States",
      "iata_code": "OAK",
      "latitude": 37.721278,
      "longitude": -122.220722,
      "links_count": 111,
      "obj_id": 3453,
      "id": 289
    },
    {
      "name": "Allama Iqbal Intl",
      "city": "Lahore",
      "country": "Pakistan",
      "iata_code": "LHE",
      "latitude": 31.521564,
      "longitude": 74.403594,
      "links_count": 111,
      "obj_id": 2207,
      "id": 290
    },
    {
      "name": "Cairns Intl",
      "city": "Cairns",
      "country": "Australia",
      "iata_code": "CNS",
      "latitude": -16.885833,
      "longitude": 145.755278,
      "links_count": 110,
      "obj_id": 3322,
      "id": 291
    },
    {
      "name": "Tancredo Neves Intl",
      "city": "Belo Horizonte",
      "country": "Brazil",
      "iata_code": "CNF",
      "latitude": -19.63375,
      "longitude": -43.968856,
      "links_count": 110,
      "obj_id": 2537,
      "id": 292
    },
    {
      "name": "Sacramento Intl",
      "city": "Sacramento",
      "country": "United States",
      "iata_code": "SMF",
      "latitude": 38.695417,
      "longitude": -121.590778,
      "links_count": 108,
      "obj_id": 3817,
      "id": 293
    },
    {
      "name": "Minsk 2",
      "city": "Minsk 2",
      "country": "Belarus",
      "iata_code": "MSQ",
      "latitude": 53.882469,
      "longitude": 28.030731,
      "links_count": 108,
      "obj_id": 2954,
      "id": 294
    },
    {
      "name": "Kotoka Intl",
      "city": "Accra",
      "country": "Ghana",
      "iata_code": "ACC",
      "latitude": 5.605186,
      "longitude": -0.166786,
      "links_count": 107,
      "obj_id": 248,
      "id": 295
    },
    {
      "name": "Landvetter",
      "city": "Gothenborg",
      "country": "Sweden",
      "iata_code": "GOT",
      "latitude": 57.662836,
      "longitude": 12.279819,
      "links_count": 106,
      "obj_id": 687,
      "id": 296
    },
    {
      "name": "Sola",
      "city": "Stavanger",
      "country": "Norway",
      "iata_code": "SVG",
      "latitude": 58.876778,
      "longitude": 5.637856,
      "links_count": 106,
      "obj_id": 666,
      "id": 297
    },
    {
      "name": "Dushanbe",
      "city": "Dushanbe",
      "country": "Tajikistan",
      "iata_code": "DYU",
      "latitude": 38.543333,
      "longitude": 68.825,
      "links_count": 106,
      "obj_id": 2979,
      "id": 298
    },
    {
      "name": "Firenze",
      "city": "Florence",
      "country": "Italy",
      "iata_code": "FLR",
      "latitude": 43.809953,
      "longitude": 11.2051,
      "links_count": 106,
      "obj_id": 1563,
      "id": 299
    },
    {
      "name": "El Salvador Intl",
      "city": "San Salvador",
      "country": "El Salvador",
      "iata_code": "SAL",
      "latitude": 13.440947,
      "longitude": -89.055728,
      "links_count": 105,
      "obj_id": 1892,
      "id": 300
    },
    {
      "name": "Esenboga",
      "city": "Ankara",
      "country": "Turkey",
      "iata_code": "ESB",
      "latitude": 40.128082,
      "longitude": 32.995083,
      "links_count": 105,
      "obj_id": 1682,
      "id": 301
    },
    {
      "name": "Madeira",
      "city": "Funchal",
      "country": "Portugal",
      "iata_code": "FNC",
      "latitude": 32.697889,
      "longitude": -16.774453,
      "links_count": 104,
      "obj_id": 4091,
      "id": 302
    },
    {
      "name": "Kota Kinabalu Intl",
      "city": "Kota Kinabalu",
      "country": "Malaysia",
      "iata_code": "BKI",
      "latitude": 5.937208,
      "longitude": 116.051181,
      "links_count": 104,
      "obj_id": 3269,
      "id": 303
    },
    {
      "name": "Astana Intl",
      "city": "Tselinograd",
      "country": "Kazakhstan",
      "iata_code": "TSE",
      "latitude": 51.022222,
      "longitude": 71.466944,
      "links_count": 104,
      "obj_id": 2910,
      "id": 304
    },
    {
      "name": "Olbia Costa Smeralda",
      "city": "Olbia",
      "country": "Italy",
      "iata_code": "OLB",
      "latitude": 40.898661,
      "longitude": 9.517628,
      "links_count": 104,
      "obj_id": 1520,
      "id": 305
    },
    {
      "name": "Bradley Intl",
      "city": "Windsor Locks",
      "country": "United States",
      "iata_code": "BDL",
      "latitude": 41.938889,
      "longitude": -72.683222,
      "links_count": 103,
      "obj_id": 3825,
      "id": 306
    },
    {
      "name": "Ioannis Kapodistrias Intl",
      "city": "Kerkyra/corfu",
      "country": "Greece",
      "iata_code": "CFU",
      "latitude": 39.601944,
      "longitude": 19.911667,
      "links_count": 103,
      "obj_id": 1460,
      "id": 307
    },
    {
      "name": "Port Moresby Jacksons Intl",
      "city": "Port Moresby",
      "country": "Papua New Guinea",
      "iata_code": "POM",
      "latitude": -9.443383,
      "longitude": 147.22005,
      "links_count": 102,
      "obj_id": 5,
      "id": 308
    },
    {
      "name": "Adelaide Intl",
      "city": "Adelaide",
      "country": "Australia",
      "iata_code": "ADL",
      "latitude": -34.945,
      "longitude": 138.530556,
      "links_count": 102,
      "obj_id": 3341,
      "id": 309
    },
    {
      "name": "Abidjan Felix Houphouet Boigny Intl",
      "city": "Abidjan",
      "country": "Cote d'Ivoire",
      "iata_code": "ABJ",
      "latitude": 5.261386,
      "longitude": -3.926294,
      "links_count": 102,
      "obj_id": 253,
      "id": 310
    },
    {
      "name": "Lech Walesa",
      "city": "Gdansk",
      "country": "Poland",
      "iata_code": "GDN",
      "latitude": 54.377569,
      "longitude": 18.466222,
      "links_count": 101,
      "obj_id": 668,
      "id": 311
    },
    {
      "name": "Los Cabos Intl",
      "city": "San Jose Del Cabo",
      "country": "Mexico",
      "iata_code": "SJD",
      "latitude": 23.15185,
      "longitude": -109.721044,
      "links_count": 101,
      "obj_id": 1840,
      "id": 312
    },
    {
      "name": "Neuenland",
      "city": "Bremen",
      "country": "Germany",
      "iata_code": "BRE",
      "latitude": 53.0475,
      "longitude": 8.786667,
      "links_count": 100,
      "obj_id": 353,
      "id": 313
    },
    {
      "name": "Ciampino",
      "city": "Rome",
      "country": "Italy",
      "iata_code": "CIA",
      "latitude": 41.799361,
      "longitude": 12.594936,
      "links_count": 100,
      "obj_id": 1553,
      "id": 314
    },
    {
      "name": "Bari",
      "city": "Bari",
      "country": "Italy",
      "iata_code": "BRI",
      "latitude": 41.138856,
      "longitude": 16.760594,
      "links_count": 100,
      "obj_id": 1501,
      "id": 315
    },
    {
      "name": "Xining Caojiabu Airport",
      "city": "Xining",
      "country": "China",
      "iata_code": "XNN",
      "latitude": 36.5275,
      "longitude": 102.043,
      "links_count": 99,
      "obj_id": 6366,
      "id": 316
    },
    {
      "name": "Yangon Intl",
      "city": "Yangon",
      "country": "Burma",
      "iata_code": "RGN",
      "latitude": 16.907305,
      "longitude": 96.133222,
      "links_count": 99,
      "obj_id": 3239,
      "id": 317
    },
    {
      "name": "Douala",
      "city": "Douala",
      "country": "Cameroon",
      "iata_code": "DLA",
      "latitude": 4.006081,
      "longitude": 9.719481,
      "links_count": 98,
      "obj_id": 897,
      "id": 318
    },
    {
      "name": "Prince Mohammad Bin Abdulaziz",
      "city": "Madinah",
      "country": "Saudi Arabia",
      "iata_code": "MED",
      "latitude": 24.553422,
      "longitude": 39.705061,
      "links_count": 98,
      "obj_id": 2074,
      "id": 319
    },
    {
      "name": "Girona",
      "city": "Gerona",
      "country": "Spain",
      "iata_code": "GRO",
      "latitude": 41.900969,
      "longitude": 2.760547,
      "links_count": 98,
      "obj_id": 1222,
      "id": 320
    },
    {
      "name": "Mactan Cebu Intl",
      "city": "Cebu",
      "country": "Philippines",
      "iata_code": "CEB",
      "latitude": 10.307542,
      "longitude": 123.979439,
      "links_count": 97,
      "obj_id": 4206,
      "id": 321
    },
    {
      "name": "Orlando Sanford Intl",
      "city": "Sanford",
      "country": "United States",
      "iata_code": "SFB",
      "latitude": 28.777639,
      "longitude": -81.237489,
      "links_count": 97,
      "obj_id": 4167,
      "id": 322
    },
    {
      "name": "Split",
      "city": "Split",
      "country": "Croatia",
      "iata_code": "SPU",
      "latitude": 43.538944,
      "longitude": 16.297964,
      "links_count": 97,
      "obj_id": 1206,
      "id": 323
    },
    {
      "name": "Halifax Intl",
      "city": "Halifax",
      "country": "Canada",
      "iata_code": "YHZ",
      "latitude": 44.880833,
      "longitude": -63.50861,
      "links_count": 95,
      "obj_id": 73,
      "id": 324
    },
    {
      "name": "Chiang Mai Intl",
      "city": "Chiang Mai",
      "country": "Thailand",
      "iata_code": "CNX",
      "latitude": 18.766847,
      "longitude": 98.962644,
      "links_count": 95,
      "obj_id": 3931,
      "id": 325
    },
    {
      "name": "Nurnberg",
      "city": "Nuernberg",
      "country": "Germany",
      "iata_code": "NUE",
      "latitude": 49.4987,
      "longitude": 11.066897,
      "links_count": 95,
      "obj_id": 347,
      "id": 326
    },
    {
      "name": "Tripoli Intl",
      "city": "Tripoli",
      "country": "Libya",
      "iata_code": "TIP",
      "latitude": 32.663544,
      "longitude": 13.159011,
      "links_count": 95,
      "obj_id": 1157,
      "id": 327
    },
    {
      "name": "Wuxi Airport",
      "city": "Wuxi",
      "country": "China",
      "iata_code": "WUX",
      "latitude": 31.4944,
      "longitude": 120.429,
      "links_count": 94,
      "obj_id": 6390,
      "id": 328
    },
    {
      "name": "Billund",
      "city": "Billund",
      "country": "Denmark",
      "iata_code": "BLL",
      "latitude": 55.740322,
      "longitude": 9.151778,
      "links_count": 94,
      "obj_id": 608,
      "id": 329
    },
    {
      "name": "Frankfurt Hahn",
      "city": "Hahn",
      "country": "Germany",
      "iata_code": "HHN",
      "latitude": 49.948672,
      "longitude": 7.263892,
      "links_count": 94,
      "obj_id": 355,
      "id": 330
    },
    {
      "name": "Congonhas",
      "city": "Sao Paulo",
      "country": "Brazil",
      "iata_code": "CGH",
      "latitude": -23.626692,
      "longitude": -46.655375,
      "links_count": 94,
      "obj_id": 2618,
      "id": 331
    },
    {
      "name": "Las Americas Intl",
      "city": "Santo Domingo",
      "country": "Dominican Republic",
      "iata_code": "SDQ",
      "latitude": 18.429664,
      "longitude": -69.668925,
      "links_count": 93,
      "obj_id": 1762,
      "id": 332
    },
    {
      "name": "Luanda 4 De Fevereiro",
      "city": "Luanda",
      "country": "Angola",
      "iata_code": "LAD",
      "latitude": -8.858375,
      "longitude": 13.231178,
      "links_count": 92,
      "obj_id": 951,
      "id": 333
    },
    {
      "name": "Dubai Al Maktoum",
      "city": "Dubai",
      "country": "United Arab Emirates",
      "iata_code": "DWC",
      "latitude": 24.55056,
      "longitude": 55.103174,
      "links_count": 92,
      "obj_id": 8076,
      "id": 334
    },
    {
      "name": "Emelyanovo",
      "city": "Krasnoyarsk",
      "country": "Russia",
      "iata_code": "KJA",
      "latitude": 56.18,
      "longitude": 92.475,
      "links_count": 92,
      "obj_id": 4374,
      "id": 335
    },
    {
      "name": "Licenciado Gustavo Diaz Ordaz Intl",
      "city": "Puerto Vallarta",
      "country": "Mexico",
      "iata_code": "PVR",
      "latitude": 20.680083,
      "longitude": -105.254167,
      "links_count": 92,
      "obj_id": 1836,
      "id": 336
    },
    {
      "name": "Jacksonville Intl",
      "city": "Jacksonville",
      "country": "United States",
      "iata_code": "JAX",
      "latitude": 30.494056,
      "longitude": -81.687861,
      "links_count": 91,
      "obj_id": 3712,
      "id": 337
    },
    {
      "name": "Pashkovskiy",
      "city": "Krasnodar",
      "country": "Russia",
      "iata_code": "KRR",
      "latitude": 45.034689,
      "longitude": 39.170539,
      "links_count": 91,
      "obj_id": 2960,
      "id": 338
    },
    {
      "name": "Keflavik International Airport",
      "city": "Keflavik",
      "country": "Iceland",
      "iata_code": "KEF",
      "latitude": 63.985,
      "longitude": -22.605556,
      "links_count": 91,
      "obj_id": 16,
      "id": 339
    },
    {
      "name": "Enfidha - Zine El Abidine Ben Ali International Airport",
      "city": "Enfidha",
      "country": "Tunisia",
      "iata_code": "NBE",
      "latitude": 36.075833,
      "longitude": 10.438611,
      "links_count": 90,
      "obj_id": 7447,
      "id": 340
    },
    {
      "name": "Darwin Intl",
      "city": "Darwin",
      "country": "Australia",
      "iata_code": "DRW",
      "latitude": -12.4083333,
      "longitude": 130.87266,
      "links_count": 90,
      "obj_id": 3999,
      "id": 341
    },
    {
      "name": "Zvartnots",
      "city": "Yerevan",
      "country": "Armenia",
      "iata_code": "EVN",
      "latitude": 40.147275,
      "longitude": 44.395881,
      "links_count": 90,
      "obj_id": 3964,
      "id": 342
    },
    {
      "name": "Manas",
      "city": "Bishkek",
      "country": "Kyrgyzstan",
      "iata_code": "FRU",
      "latitude": 43.061306,
      "longitude": 74.477556,
      "links_count": 90,
      "obj_id": 2912,
      "id": 343
    },
    {
      "name": "Reina Beatrix Intl",
      "city": "Oranjestad",
      "country": "Aruba",
      "iata_code": "AUA",
      "latitude": 12.501389,
      "longitude": -70.015221,
      "links_count": 90,
      "obj_id": 2895,
      "id": 344
    },
    {
      "name": "Souda",
      "city": "Chania",
      "country": "Greece",
      "iata_code": "CHQ",
      "latitude": 35.531747,
      "longitude": 24.149678,
      "links_count": 90,
      "obj_id": 1474,
      "id": 345
    },
    {
      "name": "Kos",
      "city": "Kos",
      "country": "Greece",
      "iata_code": "KGS",
      "latitude": 36.793335,
      "longitude": 27.091667,
      "links_count": 90,
      "obj_id": 1458,
      "id": 346
    },
    {
      "name": "Sangster Intl",
      "city": "Montego Bay",
      "country": "Jamaica",
      "iata_code": "MBJ",
      "latitude": 18.503717,
      "longitude": -77.913358,
      "links_count": 89,
      "obj_id": 1780,
      "id": 347
    },
    {
      "name": "Ottawa Macdonald Cartier Intl",
      "city": "Ottawa",
      "country": "Canada",
      "iata_code": "YOW",
      "latitude": 45.3225,
      "longitude": -75.669167,
      "links_count": 89,
      "obj_id": 100,
      "id": 348
    },
    {
      "name": "Quanzhou Airport",
      "city": "Quanzhou",
      "country": "China",
      "iata_code": "JJN",
      "latitude": 24.7964,
      "longitude": 118.59,
      "links_count": 88,
      "obj_id": 6386,
      "id": 349
    },
    {
      "name": "Palm Beach Intl",
      "city": "West Palm Beach",
      "country": "United States",
      "iata_code": "PBI",
      "latitude": 26.683161,
      "longitude": -80.095589,
      "links_count": 88,
      "obj_id": 3722,
      "id": 350
    },
    {
      "name": "Tribhuvan Intl",
      "city": "Kathmandu",
      "country": "Nepal",
      "iata_code": "KTM",
      "latitude": 27.696583,
      "longitude": 85.3591,
      "links_count": 88,
      "obj_id": 3125,
      "id": 351
    },
    {
      "name": "Jose Marti Intl",
      "city": "Havana",
      "country": "Cuba",
      "iata_code": "HAV",
      "latitude": 22.989153,
      "longitude": -82.409086,
      "links_count": 87,
      "obj_id": 1909,
      "id": 352
    },
    {
      "name": "Cape Town Intl",
      "city": "Cape Town",
      "country": "South Africa",
      "iata_code": "CPT",
      "latitude": -33.964806,
      "longitude": 18.601667,
      "links_count": 86,
      "obj_id": 797,
      "id": 353
    },
    {
      "name": "Vaernes",
      "city": "Trondheim",
      "country": "Norway",
      "iata_code": "TRD",
      "latitude": 63.457556,
      "longitude": 10.92425,
      "links_count": 86,
      "obj_id": 665,
      "id": 354
    },
    {
      "name": "John Wayne Arpt Orange Co",
      "city": "Santa Ana",
      "country": "United States",
      "iata_code": "SNA",
      "latitude": 33.675667,
      "longitude": -117.868222,
      "links_count": 86,
      "obj_id": 3867,
      "id": 355
    },
    {
      "name": "Salgado Filho",
      "city": "Porto Alegre",
      "country": "Brazil",
      "iata_code": "POA",
      "latitude": -29.994428,
      "longitude": -51.171428,
      "links_count": 86,
      "obj_id": 2599,
      "id": 356
    },
    {
      "name": "Afonso Pena",
      "city": "Curitiba",
      "country": "Brazil",
      "iata_code": "CWB",
      "latitude": -25.528475,
      "longitude": -49.175775,
      "links_count": 86,
      "obj_id": 2545,
      "id": 357
    },
    {
      "name": "Torino",
      "city": "Torino",
      "country": "Italy",
      "iata_code": "TRN",
      "latitude": 45.200761,
      "longitude": 7.649631,
      "links_count": 86,
      "obj_id": 1526,
      "id": 358
    },
    {
      "name": "Elmas",
      "city": "Cagliari",
      "country": "Italy",
      "iata_code": "CAG",
      "latitude": 39.251469,
      "longitude": 9.054283,
      "links_count": 86,
      "obj_id": 1519,
      "id": 359
    },
    {
      "name": "Male Intl",
      "city": "Male",
      "country": "Maldives",
      "iata_code": "MLE",
      "latitude": 4.191833,
      "longitude": 73.529128,
      "links_count": 85,
      "obj_id": 3156,
      "id": 360
    },
    {
      "name": "Zagreb",
      "city": "Zagreb",
      "country": "Croatia",
      "iata_code": "ZAG",
      "latitude": 45.742931,
      "longitude": 16.068778,
      "links_count": 85,
      "obj_id": 1208,
      "id": 361
    },
    {
      "name": "Pafos Intl",
      "city": "Paphos",
      "country": "Cyprus",
      "iata_code": "PFO",
      "latitude": 34.718039,
      "longitude": 32.485731,
      "links_count": 85,
      "obj_id": 1198,
      "id": 362
    },
    {
      "name": "Kahului",
      "city": "Kahului",
      "country": "United States",
      "iata_code": "OGG",
      "latitude": 20.89865,
      "longitude": -156.430458,
      "links_count": 84,
      "obj_id": 3456,
      "id": 363
    },
    {
      "name": "Penang Intl",
      "city": "Penang",
      "country": "Malaysia",
      "iata_code": "PEN",
      "latitude": 5.297139,
      "longitude": 100.276864,
      "links_count": 84,
      "obj_id": 3308,
      "id": 364
    },
    {
      "name": "Thiruvananthapuram Intl",
      "city": "Trivandrum",
      "country": "India",
      "iata_code": "TRV",
      "latitude": 8.482122,
      "longitude": 76.920114,
      "links_count": 84,
      "obj_id": 3153,
      "id": 365
    },
    {
      "name": "Osaka Intl",
      "city": "Osaka",
      "country": "Japan",
      "iata_code": "ITM",
      "latitude": 34.785528,
      "longitude": 135.438222,
      "links_count": 84,
      "obj_id": 2334,
      "id": 366
    },
    {
      "name": "Albuquerque International Sunport",
      "city": "Albuquerque",
      "country": "United States",
      "iata_code": "ABQ",
      "latitude": 35.0402222,
      "longitude": -106.6091944,
      "links_count": 83,
      "obj_id": 4019,
      "id": 367
    },
    {
      "name": "Louisville International Airport",
      "city": "Louisville",
      "country": "United States",
      "iata_code": "SDF",
      "latitude": 38.1740858,
      "longitude": -85.7364989,
      "links_count": 83,
      "obj_id": 4014,
      "id": 368
    },
    {
      "name": "Nadi Intl",
      "city": "Nandi",
      "country": "Fiji",
      "iata_code": "NAN",
      "latitude": -17.755392,
      "longitude": 177.443378,
      "links_count": 83,
      "obj_id": 1960,
      "id": 369
    },
    {
      "name": "General Abelardo L Rodriguez Intl",
      "city": "Tijuana",
      "country": "Mexico",
      "iata_code": "TIJ",
      "latitude": 32.541064,
      "longitude": -116.970158,
      "links_count": 83,
      "obj_id": 1847,
      "id": 370
    },
    {
      "name": "Sir Seewoosagur Ramgoolam Intl",
      "city": "Plaisance",
      "country": "Mauritius",
      "iata_code": "MRU",
      "latitude": -20.430235,
      "longitude": 57.6836,
      "links_count": 82,
      "obj_id": 893,
      "id": 371
    },
    {
      "name": "Dyce",
      "city": "Aberdeen",
      "country": "United Kingdom",
      "iata_code": "ABZ",
      "latitude": 57.201944,
      "longitude": -2.197778,
      "links_count": 82,
      "obj_id": 532,
      "id": 372
    },
    {
      "name": "Irkutsk",
      "city": "Irkutsk",
      "country": "Russia",
      "iata_code": "IKT",
      "latitude": 52.268028,
      "longitude": 104.388975,
      "links_count": 82,
      "obj_id": 2937,
      "id": 373
    },
    {
      "name": "Will Rogers World",
      "city": "Oklahoma City",
      "country": "United States",
      "iata_code": "OKC",
      "latitude": 35.393089,
      "longitude": -97.600733,
      "links_count": 81,
      "obj_id": 3863,
      "id": 374
    },
    {
      "name": "Borg El Arab Intl",
      "city": "Alexandria",
      "country": "Egypt",
      "iata_code": "HBE",
      "latitude": 30.917669,
      "longitude": 29.696408,
      "links_count": 81,
      "obj_id": 3410,
      "id": 375
    },
    {
      "name": "Siem Reap",
      "city": "Siem-reap",
      "country": "Cambodia",
      "iata_code": "REP",
      "latitude": 13.410666,
      "longitude": 103.81284,
      "links_count": 81,
      "obj_id": 3035,
      "id": 376
    },
    {
      "name": "Winnipeg Intl",
      "city": "Winnipeg",
      "country": "Canada",
      "iata_code": "YWG",
      "latitude": 49.910036,
      "longitude": -97.239886,
      "links_count": 81,
      "obj_id": 160,
      "id": 377
    },
    {
      "name": "Khartoum",
      "city": "Khartoum",
      "country": "Sudan",
      "iata_code": "KRT",
      "latitude": 15.589497,
      "longitude": 32.553161,
      "links_count": 81,
      "obj_id": 1175,
      "id": 378
    },
    {
      "name": "Cadjehoun",
      "city": "Cotonou",
      "country": "Benin",
      "iata_code": "COO",
      "latitude": 6.357228,
      "longitude": 2.384353,
      "links_count": 80,
      "obj_id": 245,
      "id": 379
    },
    {
      "name": "Sungshan",
      "city": "Taipei",
      "country": "Taiwan",
      "iata_code": "TSA",
      "latitude": 25.069722,
      "longitude": 121.5525,
      "links_count": 80,
      "obj_id": 2275,
      "id": 380
    },
    {
      "name": "Lesquin",
      "city": "Lille",
      "country": "France",
      "iata_code": "LIL",
      "latitude": 50.561942,
      "longitude": 3.089444,
      "links_count": 80,
      "obj_id": 1399,
      "id": 381
    },
    {
      "name": "Leipzig Halle",
      "city": "Leipzig",
      "country": "Germany",
      "iata_code": "LEJ",
      "latitude": 51.432447,
      "longitude": 12.241633,
      "links_count": 79,
      "obj_id": 348,
      "id": 382
    },
    {
      "name": "Hurghada Intl",
      "city": "Hurghada",
      "country": "Egypt",
      "iata_code": "HRG",
      "latitude": 27.178317,
      "longitude": 33.799436,
      "links_count": 79,
      "obj_id": 1130,
      "id": 383
    },
    {
      "name": "Mariscal Sucre Intl",
      "city": "Quito",
      "country": "Ecuador",
      "iata_code": "UIO",
      "latitude": -0.141144,
      "longitude": -78.488214,
      "links_count": 78,
      "obj_id": 2688,
      "id": 384
    },
    {
      "name": "Gimpo",
      "city": "Seoul",
      "country": "South Korea",
      "iata_code": "GMP",
      "latitude": 37.558311,
      "longitude": 126.790586,
      "links_count": 78,
      "obj_id": 2378,
      "id": 385
    },
    {
      "name": "Shiraz Shahid Dastghaib Intl",
      "city": "Shiraz",
      "country": "Iran",
      "iata_code": "SYZ",
      "latitude": 29.539242,
      "longitude": 52.589786,
      "links_count": 78,
      "obj_id": 2157,
      "id": 386
    },
    {
      "name": "Campo Dell Oro",
      "city": "Ajaccio",
      "country": "France",
      "iata_code": "AJA",
      "latitude": 41.923637,
      "longitude": 8.802917,
      "links_count": 78,
      "obj_id": 1324,
      "id": 387
    },
    {
      "name": "Kigali Intl",
      "city": "Kigali",
      "country": "Rwanda",
      "iata_code": "KGL",
      "latitude": -1.968628,
      "longitude": 30.13945,
      "links_count": 78,
      "obj_id": 1165,
      "id": 388
    },
    {
      "name": "Faa\\\\'a International",
      "city": "Papeete",
      "country": "French Polynesia",
      "iata_code": "PPT",
      "latitude": -17.556667,
      "longitude": -149.611389,
      "links_count": 77,
      "obj_id": 4075,
      "id": 389
    },
    {
      "name": "Sharm El Sheikh Intl",
      "city": "Sharm El Sheikh",
      "country": "Egypt",
      "iata_code": "SSH",
      "latitude": 27.977222,
      "longitude": 34.394722,
      "links_count": 77,
      "obj_id": 4057,
      "id": 390
    },
    {
      "name": "La Aurora",
      "city": "Guatemala City",
      "country": "Guatemala",
      "iata_code": "GUA",
      "latitude": 14.583272,
      "longitude": -90.527475,
      "links_count": 77,
      "obj_id": 1767,
      "id": 391
    },
    {
      "name": "Villafranca",
      "city": "Villafranca",
      "country": "Italy",
      "iata_code": "VRN",
      "latitude": 45.395706,
      "longitude": 10.888533,
      "links_count": 77,
      "obj_id": 1550,
      "id": 392
    },
    {
      "name": "Jersey",
      "city": "Jersey",
      "country": "Jersey",
      "iata_code": "JER",
      "latitude": 49.207947,
      "longitude": -2.195508,
      "links_count": 76,
      "obj_id": 499,
      "id": 393
    },
    {
      "name": "Niederrhein",
      "city": "Weeze",
      "country": "Germany",
      "iata_code": "NRN",
      "latitude": 51.602222,
      "longitude": 6.141944,
      "links_count": 76,
      "obj_id": 4198,
      "id": 394
    },
    {
      "name": "Tallinn",
      "city": "Tallinn-ulemiste International",
      "country": "Estonia",
      "iata_code": "TLL",
      "latitude": 59.413317,
      "longitude": 24.832844,
      "links_count": 76,
      "obj_id": 415,
      "id": 395
    },
    {
      "name": "Richmond Intl",
      "city": "Richmond",
      "country": "United States",
      "iata_code": "RIC",
      "latitude": 37.505167,
      "longitude": -77.319667,
      "links_count": 76,
      "obj_id": 3608,
      "id": 396
    },
    {
      "name": "Yakutsk",
      "city": "Yakutsk",
      "country": "Russia",
      "iata_code": "YKS",
      "latitude": 62.09325,
      "longitude": 129.770672,
      "links_count": 76,
      "obj_id": 2923,
      "id": 397
    },
    {
      "name": "Treviso",
      "city": "Treviso",
      "country": "Italy",
      "iata_code": "TSF",
      "latitude": 45.6484,
      "longitude": 12.194422,
      "links_count": 76,
      "obj_id": 1539,
      "id": 398
    },
    {
      "name": "Sanaa Intl",
      "city": "Sanaa",
      "country": "Yemen",
      "iata_code": "SAH",
      "latitude": 15.476258,
      "longitude": 44.219739,
      "links_count": 75,
      "obj_id": 3980,
      "id": 399
    },
    {
      "name": "Dallas Love Fld",
      "city": "Dallas",
      "country": "United States",
      "iata_code": "DAL",
      "latitude": 32.847111,
      "longitude": -96.851778,
      "links_count": 75,
      "obj_id": 3502,
      "id": 400
    },
    {
      "name": "Novy",
      "city": "Khabarovsk",
      "country": "Russia",
      "iata_code": "KHV",
      "latitude": 48.528044,
      "longitude": 135.188361,
      "links_count": 75,
      "obj_id": 2927,
      "id": 401
    },
    {
      "name": "Torp",
      "city": "Sandefjord",
      "country": "Norway",
      "iata_code": "TRF",
      "latitude": 59.186703,
      "longitude": 10.258628,
      "links_count": 74,
      "obj_id": 664,
      "id": 402
    },
    {
      "name": "Moss",
      "city": "Rygge",
      "country": "Norway",
      "iata_code": "RYG",
      "latitude": 59.378933,
      "longitude": 10.785389,
      "links_count": 74,
      "obj_id": 657,
      "id": 403
    },
    {
      "name": "Changzhou",
      "city": "Changzhou",
      "country": "China",
      "iata_code": "CZX",
      "latitude": 31.941667,
      "longitude": 119.711667,
      "links_count": 74,
      "obj_id": 4109,
      "id": 404
    },
    {
      "name": "Norfolk Intl",
      "city": "Norfolk",
      "country": "United States",
      "iata_code": "ORF",
      "latitude": 36.894611,
      "longitude": -76.201222,
      "links_count": 74,
      "obj_id": 3611,
      "id": 405
    },
    {
      "name": "Zarzis",
      "city": "Djerba",
      "country": "Tunisia",
      "iata_code": "DJE",
      "latitude": 33.875031,
      "longitude": 10.775461,
      "links_count": 73,
      "obj_id": 293,
      "id": 406
    },
    {
      "name": "Sepinggan",
      "city": "Balikpapan",
      "country": "Indonesia",
      "iata_code": "BPN",
      "latitude": -1.268272,
      "longitude": 116.894478,
      "links_count": 72,
      "obj_id": 3919,
      "id": 407
    },
    {
      "name": "Guararapes Gilberto Freyre Intl",
      "city": "Recife",
      "country": "Brazil",
      "iata_code": "REC",
      "latitude": -8.126794,
      "longitude": -34.923039,
      "links_count": 72,
      "obj_id": 2610,
      "id": 408
    },
    {
      "name": "Christchurch Intl",
      "city": "Christchurch",
      "country": "New Zealand",
      "iata_code": "CHC",
      "latitude": -43.489358,
      "longitude": 172.532225,
      "links_count": 72,
      "obj_id": 2009,
      "id": 409
    },
    {
      "name": "Poretta",
      "city": "Bastia",
      "country": "France",
      "iata_code": "BIA",
      "latitude": 42.552664,
      "longitude": 9.483731,
      "links_count": 72,
      "obj_id": 1321,
      "id": 410
    },
    {
      "name": "Tirana Rinas",
      "city": "Tirana",
      "country": "Albania",
      "iata_code": "TIA",
      "latitude": 41.414742,
      "longitude": 19.720561,
      "links_count": 72,
      "obj_id": 1190,
      "id": 411
    },
    {
      "name": "Wai Sha Airport",
      "city": "Shantou",
      "country": "China",
      "iata_code": "SWA",
      "latitude": 23.4,
      "longitude": 116.683,
      "links_count": 71,
      "obj_id": 4302,
      "id": 412
    },
    {
      "name": "Buffalo Niagara Intl",
      "city": "Buffalo",
      "country": "United States",
      "iata_code": "BUF",
      "latitude": 42.940525,
      "longitude": -78.732167,
      "links_count": 71,
      "obj_id": 3820,
      "id": 413
    },
    {
      "name": "Birmingham Intl",
      "city": "Birmingham",
      "country": "United States",
      "iata_code": "BHM",
      "latitude": 33.562942,
      "longitude": -86.75355,
      "links_count": 71,
      "obj_id": 3811,
      "id": 414
    },
    {
      "name": "Jose Joaquin De Olmedo Intl",
      "city": "Guayaquil",
      "country": "Ecuador",
      "iata_code": "GYE",
      "latitude": -2.157419,
      "longitude": -79.883558,
      "links_count": 71,
      "obj_id": 2673,
      "id": 415
    },
    {
      "name": "Pinto Martins Intl",
      "city": "Fortaleza",
      "country": "Brazil",
      "iata_code": "FOR",
      "latitude": -3.776283,
      "longitude": -38.532556,
      "links_count": 71,
      "obj_id": 2559,
      "id": 416
    },
    {
      "name": "Belfast Intl",
      "city": "Belfast",
      "country": "United Kingdom",
      "iata_code": "BFS",
      "latitude": 54.6575,
      "longitude": -6.215833,
      "links_count": 70,
      "obj_id": 465,
      "id": 417
    },
    {
      "name": "Ahmedabad",
      "city": "Ahmedabad",
      "country": "India",
      "iata_code": "AMD",
      "latitude": 23.077242,
      "longitude": 72.63465,
      "links_count": 70,
      "obj_id": 2994,
      "id": 418
    },
    {
      "name": "Piarco",
      "city": "Port-of-spain",
      "country": "Trinidad and Tobago",
      "iata_code": "POS",
      "latitude": 10.595369,
      "longitude": -61.337242,
      "links_count": 70,
      "obj_id": 2902,
      "id": 419
    },
    {
      "name": "Val De Cans Intl",
      "city": "Belem",
      "country": "Brazil",
      "iata_code": "BEL",
      "latitude": -1.37925,
      "longitude": -48.476292,
      "links_count": 70,
      "obj_id": 2526,
      "id": 420
    },
    {
      "name": "Guam Intl",
      "city": "Agana",
      "country": "Guam",
      "iata_code": "GUM",
      "latitude": 13.48345,
      "longitude": 144.795983,
      "links_count": 70,
      "obj_id": 2246,
      "id": 421
    },
    {
      "name": "Santiago",
      "city": "Santiago",
      "country": "Spain",
      "iata_code": "SCQ",
      "latitude": 42.896333,
      "longitude": -8.415144,
      "links_count": 70,
      "obj_id": 1243,
      "id": 422
    },
    {
      "name": "Menorca",
      "city": "Menorca",
      "country": "Spain",
      "iata_code": "MAH",
      "latitude": 39.862597,
      "longitude": 4.218647,
      "links_count": 70,
      "obj_id": 1231,
      "id": 423
    },
    {
      "name": "Tbilisi",
      "city": "Tbilisi",
      "country": "Georgia",
      "iata_code": "TBS",
      "latitude": 41.669167,
      "longitude": 44.954722,
      "links_count": 69,
      "obj_id": 3973,
      "id": 424
    },
    {
      "name": "Charleston Afb Intl",
      "city": "Charleston",
      "country": "United States",
      "iata_code": "CHS",
      "latitude": 32.898647,
      "longitude": -80.040528,
      "links_count": 69,
      "obj_id": 3806,
      "id": 425
    },
    {
      "name": "Eppley Afld",
      "city": "Omaha",
      "country": "United States",
      "iata_code": "OMA",
      "latitude": 41.303167,
      "longitude": -95.894069,
      "links_count": 69,
      "obj_id": 3454,
      "id": 426
    },
    {
      "name": "V C Bird Intl",
      "city": "Antigua",
      "country": "Antigua and Barbuda",
      "iata_code": "ANU",
      "latitude": 17.136749,
      "longitude": -61.792667,
      "links_count": 69,
      "obj_id": 2874,
      "id": 427
    },
    {
      "name": "Salzburg",
      "city": "Salzburg",
      "country": "Austria",
      "iata_code": "SZG",
      "latitude": 47.793304,
      "longitude": 13.004333,
      "links_count": 69,
      "obj_id": 1612,
      "id": 428
    },
    {
      "name": "Entzheim",
      "city": "Strasbourg",
      "country": "France",
      "iata_code": "SXB",
      "latitude": 48.538319,
      "longitude": 7.628233,
      "links_count": 69,
      "obj_id": 1435,
      "id": 429
    },
    {
      "name": "Cork",
      "city": "Cork",
      "country": "Ireland",
      "iata_code": "ORK",
      "latitude": 51.841269,
      "longitude": -8.491111,
      "links_count": 68,
      "obj_id": 596,
      "id": 430
    },
    {
      "name": "Myrtle Beach Intl",
      "city": "Myrtle Beach",
      "country": "United States",
      "iata_code": "MYR",
      "latitude": 33.67975,
      "longitude": -78.928333,
      "links_count": 68,
      "obj_id": 3515,
      "id": 431
    },
    {
      "name": "Pune",
      "city": "Pune",
      "country": "India",
      "iata_code": "PNQ",
      "latitude": 18.582111,
      "longitude": 73.919697,
      "links_count": 68,
      "obj_id": 3017,
      "id": 432
    },
    {
      "name": "Es Senia",
      "city": "Oran",
      "country": "Algeria",
      "iata_code": "ORN",
      "latitude": 35.623858,
      "longitude": -0.621183,
      "links_count": 68,
      "obj_id": 231,
      "id": 433
    },
    {
      "name": "Chisinau Intl",
      "city": "Chisinau",
      "country": "Moldova",
      "iata_code": "KIV",
      "latitude": 46.927744,
      "longitude": 28.930978,
      "links_count": 68,
      "obj_id": 1735,
      "id": 434
    },
    {
      "name": "Lusaka Intl",
      "city": "Lusaka",
      "country": "Zambia",
      "iata_code": "LUN",
      "latitude": -15.330817,
      "longitude": 28.452628,
      "links_count": 67,
      "obj_id": 907,
      "id": 435
    },
    {
      "name": "Dortmund",
      "city": "Dortmund",
      "country": "Germany",
      "iata_code": "DTM",
      "latitude": 51.518314,
      "longitude": 7.612242,
      "links_count": 67,
      "obj_id": 373,
      "id": 436
    },
    {
      "name": "Entebbe Intl",
      "city": "Entebbe",
      "country": "Uganda",
      "iata_code": "EBB",
      "latitude": 0.042386,
      "longitude": 32.443503,
      "links_count": 67,
      "obj_id": 1187,
      "id": 437
    },
    {
      "name": "Mwalimu Julius K Nyerere Intl",
      "city": "Dar Es Salaam",
      "country": "Tanzania",
      "iata_code": "DAR",
      "latitude": -6.878111,
      "longitude": 39.202625,
      "links_count": 67,
      "obj_id": 1177,
      "id": 438
    },
    {
      "name": "Strachowice",
      "city": "Wroclaw",
      "country": "Poland",
      "iata_code": "WRO",
      "latitude": 51.102683,
      "longitude": 16.885836,
      "links_count": 66,
      "obj_id": 680,
      "id": 439
    },
    {
      "name": "Khudzhand Airport",
      "city": "Khudzhand",
      "country": "Tajikistan",
      "iata_code": "LBD",
      "latitude": 40.2154,
      "longitude": 69.6947,
      "links_count": 66,
      "obj_id": 6147,
      "id": 440
    },
    {
      "name": "Rotterdam",
      "city": "Rotterdam",
      "country": "Netherlands",
      "iata_code": "RTM",
      "latitude": 51.956944,
      "longitude": 4.437222,
      "links_count": 66,
      "obj_id": 591,
      "id": 441
    },
    {
      "name": "Southampton",
      "city": "Southampton",
      "country": "United Kingdom",
      "iata_code": "SOU",
      "latitude": 50.950261,
      "longitude": -1.356803,
      "links_count": 66,
      "obj_id": 495,
      "id": 442
    },
    {
      "name": "Danang Intl",
      "city": "Danang",
      "country": "Vietnam",
      "iata_code": "DAD",
      "latitude": 16.043917,
      "longitude": 108.19937,
      "links_count": 66,
      "obj_id": 3196,
      "id": 443
    },
    {
      "name": "Cyril E King",
      "city": "St. Thomas",
      "country": "Virgin Islands",
      "iata_code": "STT",
      "latitude": 18.337306,
      "longitude": -64.973361,
      "links_count": 66,
      "obj_id": 2883,
      "id": 444
    },
    {
      "name": "Marechal Rondon",
      "city": "Cuiaba",
      "country": "Brazil",
      "iata_code": "CGB",
      "latitude": -15.652931,
      "longitude": -56.116719,
      "links_count": 66,
      "obj_id": 2548,
      "id": 445
    },
    {
      "name": "Ouagadougou",
      "city": "Ouagadougou",
      "country": "Burkina Faso",
      "iata_code": "OUA",
      "latitude": 12.353194,
      "longitude": -1.512417,
      "links_count": 66,
      "obj_id": 246,
      "id": 446
    },
    {
      "name": "Ljubljana",
      "city": "Ljubljana",
      "country": "Slovenia",
      "iata_code": "LJU",
      "latitude": 46.223686,
      "longitude": 14.457611,
      "links_count": 66,
      "obj_id": 1569,
      "id": 447
    },
    {
      "name": "Tenerife Norte",
      "city": "Tenerife",
      "country": "Spain",
      "iata_code": "TFN",
      "latitude": 28.482653,
      "longitude": -16.341536,
      "links_count": 66,
      "obj_id": 1057,
      "id": 448
    },
    {
      "name": "Phoenix-Mesa Gateway",
      "city": "Mesa",
      "country": "United States",
      "iata_code": "AZA",
      "latitude": 33.307833,
      "longitude": -111.655,
      "links_count": 64,
      "obj_id": 6505,
      "id": 449
    },
    {
      "name": "James M Cox Dayton Intl",
      "city": "Dayton",
      "country": "United States",
      "iata_code": "DAY",
      "latitude": 39.902375,
      "longitude": -84.219375,
      "links_count": 64,
      "obj_id": 3627,
      "id": 450
    },
    {
      "name": "Eduardo Gomes Intl",
      "city": "Manaus",
      "country": "Brazil",
      "iata_code": "MAO",
      "latitude": -3.038611,
      "longitude": -60.049721,
      "links_count": 64,
      "obj_id": 2551,
      "id": 451
    },
    {
      "name": "Wellington Intl",
      "city": "Wellington",
      "country": "New Zealand",
      "iata_code": "WLG",
      "latitude": -41.327221,
      "longitude": 174.805278,
      "links_count": 64,
      "obj_id": 2042,
      "id": 452
    },
    {
      "name": "Lokpriya Gopinath Bordoloi International Airport",
      "city": "Guwahati",
      "country": "India",
      "iata_code": "GAU",
      "latitude": 26.106092,
      "longitude": 91.585939,
      "links_count": 63,
      "obj_id": 6173,
      "id": 453
    },
    {
      "name": "Cardiff",
      "city": "Cardiff",
      "country": "United Kingdom",
      "iata_code": "CWL",
      "latitude": 51.396667,
      "longitude": -3.343333,
      "links_count": 63,
      "obj_id": 488,
      "id": 454
    },
    {
      "name": "Bodrum - Milas",
      "city": "Bodrum",
      "country": "Turkey",
      "iata_code": "BJV",
      "latitude": 37.249,
      "longitude": 27.667,
      "links_count": 63,
      "obj_id": 4315,
      "id": 455
    },
    {
      "name": "Hato",
      "city": "Willemstad",
      "country": "Netherlands Antilles",
      "iata_code": "CUR",
      "latitude": 12.188853,
      "longitude": -68.959803,
      "links_count": 63,
      "obj_id": 2897,
      "id": 456
    },
    {
      "name": "Skavsta",
      "city": "Stockholm",
      "country": "Sweden",
      "iata_code": "NYO",
      "latitude": 58.788636,
      "longitude": 16.912189,
      "links_count": 62,
      "obj_id": 699,
      "id": 457
    },
    {
      "name": "Mc Ghee Tyson",
      "city": "Knoxville",
      "country": "United States",
      "iata_code": "TYS",
      "latitude": 35.810972,
      "longitude": -83.994028,
      "links_count": 62,
      "obj_id": 3676,
      "id": 458
    },
    {
      "name": "Tucson Intl",
      "city": "Tucson",
      "country": "United States",
      "iata_code": "TUS",
      "latitude": 32.116083,
      "longitude": -110.941028,
      "links_count": 62,
      "obj_id": 3636,
      "id": 459
    },
    {
      "name": "St Petersburg Clearwater Intl",
      "city": "St. Petersburg",
      "country": "United States",
      "iata_code": "PIE",
      "latitude": 27.910167,
      "longitude": -82.687389,
      "links_count": 62,
      "obj_id": 3617,
      "id": 460
    },
    {
      "name": "Sendai",
      "city": "Sendai",
      "country": "Japan",
      "iata_code": "SDJ",
      "latitude": 38.139722,
      "longitude": 140.916944,
      "links_count": 62,
      "obj_id": 2347,
      "id": 461
    },
    {
      "name": "Providenciales",
      "city": "Providenciales",
      "country": "Turks and Caicos Islands",
      "iata_code": "PLS",
      "latitude": 21.773625,
      "longitude": -72.265886,
      "links_count": 62,
      "obj_id": 1754,
      "id": 462
    },
    {
      "name": "Alghero",
      "city": "Alghero",
      "country": "Italy",
      "iata_code": "AHO",
      "latitude": 40.632133,
      "longitude": 8.290772,
      "links_count": 62,
      "obj_id": 1517,
      "id": 463
    },
    {
      "name": "Calicut",
      "city": "Calicut",
      "country": "India",
      "iata_code": "CCJ",
      "latitude": 11.136839,
      "longitude": 75.9553,
      "links_count": 61,
      "obj_id": 3137,
      "id": 464
    },
    {
      "name": "Phnom Penh Intl",
      "city": "Phnom-penh",
      "country": "Cambodia",
      "iata_code": "PNH",
      "latitude": 11.546556,
      "longitude": 104.844139,
      "links_count": 61,
      "obj_id": 3034,
      "id": 465
    },
    {
      "name": "Santos Dumont",
      "city": "Rio De Janeiro",
      "country": "Brazil",
      "iata_code": "SDU",
      "latitude": -22.910461,
      "longitude": -43.163133,
      "links_count": 61,
      "obj_id": 2612,
      "id": 466
    },
    {
      "name": "Lhasa-Gonggar",
      "city": "Lhasa",
      "country": "China",
      "iata_code": "LXA",
      "latitude": 29.297778,
      "longitude": 90.911944,
      "links_count": 60,
      "obj_id": 4097,
      "id": 467
    },
    {
      "name": "Erbil Intl",
      "city": "Erbil",
      "country": "Iraq",
      "iata_code": "EBL",
      "latitude": 36.237611,
      "longitude": 43.963158,
      "links_count": 60,
      "obj_id": 3989,
      "id": 468
    },
    {
      "name": "Albany Intl",
      "city": "Albany",
      "country": "United States",
      "iata_code": "ALB",
      "latitude": 42.748267,
      "longitude": -73.801692,
      "links_count": 60,
      "obj_id": 3864,
      "id": 469
    },
    {
      "name": "Greater Rochester Intl",
      "city": "Rochester",
      "country": "United States",
      "iata_code": "ROC",
      "latitude": 43.118866,
      "longitude": -77.672389,
      "links_count": 60,
      "obj_id": 3622,
      "id": 470
    },
    {
      "name": "Osh",
      "city": "Osh",
      "country": "Kyrgyzstan",
      "iata_code": "OSS",
      "latitude": 40.608989,
      "longitude": 72.793269,
      "links_count": 60,
      "obj_id": 2913,
      "id": 471
    },
    {
      "name": "Nnamdi Azikiwe Intl",
      "city": "Abuja",
      "country": "Nigeria",
      "iata_code": "ABV",
      "latitude": 9.006792,
      "longitude": 7.263172,
      "links_count": 60,
      "obj_id": 260,
      "id": 472
    },
    {
      "name": "Peshawar Intl",
      "city": "Peshawar",
      "country": "Pakistan",
      "iata_code": "PEW",
      "latitude": 33.993911,
      "longitude": 71.514581,
      "links_count": 60,
      "obj_id": 2219,
      "id": 473
    },
    {
      "name": "Zhangxiao",
      "city": "Yuncheng",
      "country": "China",
      "iata_code": "YCU",
      "latitude": 35.018,
      "longitude": 110.993,
      "links_count": 58,
      "obj_id": 6430,
      "id": 474
    },
    {
      "name": "Baotou Airport",
      "city": "Baotou",
      "country": "China",
      "iata_code": "BAV",
      "latitude": 40.56,
      "longitude": 109.997,
      "links_count": 58,
      "obj_id": 6346,
      "id": 475
    },
    {
      "name": "Shannon",
      "city": "Shannon",
      "country": "Ireland",
      "iata_code": "SNN",
      "latitude": 52.701978,
      "longitude": -8.924817,
      "links_count": 58,
      "obj_id": 603,
      "id": 476
    },
    {
      "name": "Greenville-Spartanburg International",
      "city": "Greenville",
      "country": "United States",
      "iata_code": "GSP",
      "latitude": 34.895556,
      "longitude": -82.218889,
      "links_count": 58,
      "obj_id": 4034,
      "id": 477
    },
    {
      "name": "Adi Sutjipto",
      "city": "Yogyakarta",
      "country": "Indonesia",
      "iata_code": "JOG",
      "latitude": -7.788181,
      "longitude": 110.431758,
      "links_count": 58,
      "obj_id": 3898,
      "id": 478
    },
    {
      "name": "Adams Fld",
      "city": "Little Rock",
      "country": "United States",
      "iata_code": "LIT",
      "latitude": 34.729444,
      "longitude": -92.224306,
      "links_count": 58,
      "obj_id": 3660,
      "id": 479
    },
    {
      "name": "Subang-Sultan Abdul Aziz Shah Intl",
      "city": "Kuala Lumpur",
      "country": "Malaysia",
      "iata_code": "SZB",
      "latitude": 3.130583,
      "longitude": 101.549333,
      "links_count": 58,
      "obj_id": 3408,
      "id": 480
    },
    {
      "name": "Goa",
      "city": "Goa",
      "country": "India",
      "iata_code": "GOI",
      "latitude": 15.380833,
      "longitude": 73.831422,
      "links_count": 58,
      "obj_id": 3007,
      "id": 481
    },
    {
      "name": "Le Raizet",
      "city": "Pointe-a-pitre",
      "country": "Guadeloupe",
      "iata_code": "PTP",
      "latitude": 16.265306,
      "longitude": -61.531806,
      "links_count": 58,
      "obj_id": 2881,
      "id": 482
    },
    {
      "name": "Ching Chuang Kang",
      "city": "Taichung",
      "country": "Taiwan",
      "iata_code": "RMQ",
      "latitude": 24.264668,
      "longitude": 120.62058,
      "links_count": 58,
      "obj_id": 2268,
      "id": 483
    },
    {
      "name": "Yellowknife",
      "city": "Yellowknife",
      "country": "Canada",
      "iata_code": "YZF",
      "latitude": 62.462778,
      "longitude": -114.440278,
      "links_count": 58,
      "obj_id": 196,
      "id": 484
    },
    {
      "name": "Norman Manley Intl",
      "city": "Kingston",
      "country": "Jamaica",
      "iata_code": "KIN",
      "latitude": 17.935667,
      "longitude": -76.7875,
      "links_count": 58,
      "obj_id": 1779,
      "id": 485
    },
    {
      "name": "Des Moines Intl",
      "city": "Des Moines",
      "country": "United States",
      "iata_code": "DSM",
      "latitude": 41.533972,
      "longitude": -93.663083,
      "links_count": 57,
      "obj_id": 3729,
      "id": 486
    },
    {
      "name": "Bethel",
      "city": "Bethel",
      "country": "United States",
      "iata_code": "BET",
      "latitude": 60.779778,
      "longitude": -161.838,
      "links_count": 57,
      "obj_id": 3599,
      "id": 487
    },
    {
      "name": "Alfonso Bonilla Aragon Intl",
      "city": "Cali",
      "country": "Colombia",
      "iata_code": "CLO",
      "latitude": 3.543222,
      "longitude": -76.381583,
      "links_count": 57,
      "obj_id": 2715,
      "id": 488
    },
    {
      "name": "Quebec Jean Lesage Intl",
      "city": "Quebec",
      "country": "Canada",
      "iata_code": "YQB",
      "latitude": 46.791111,
      "longitude": -71.393333,
      "links_count": 57,
      "obj_id": 111,
      "id": 489
    },
    {
      "name": "Harare Intl",
      "city": "Harare",
      "country": "Zimbabwe",
      "iata_code": "HRE",
      "latitude": -17.931806,
      "longitude": 31.092847,
      "links_count": 57,
      "obj_id": 1005,
      "id": 490
    },
    {
      "name": "Pyrzowice",
      "city": "Katowice",
      "country": "Poland",
      "iata_code": "KTW",
      "latitude": 50.474253,
      "longitude": 19.080019,
      "links_count": 56,
      "obj_id": 671,
      "id": 491
    },
    {
      "name": "Reno Tahoe Intl",
      "city": "Reno",
      "country": "United States",
      "iata_code": "RNO",
      "latitude": 39.499108,
      "longitude": -119.768108,
      "links_count": 56,
      "obj_id": 3807,
      "id": 492
    },
    {
      "name": "Gerald R Ford Intl",
      "city": "Grand Rapids",
      "country": "United States",
      "iata_code": "GRR",
      "latitude": 42.880833,
      "longitude": -85.522806,
      "links_count": 56,
      "obj_id": 3685,
      "id": 493
    },
    {
      "name": "Gold Coast",
      "city": "Coolangatta",
      "country": "Australia",
      "iata_code": "OOL",
      "latitude": -28.164444,
      "longitude": 153.504722,
      "links_count": 56,
      "obj_id": 3321,
      "id": 494
    },
    {
      "name": "Kazan",
      "city": "Kazan",
      "country": "Russia",
      "iata_code": "KZN",
      "latitude": 55.606186,
      "longitude": 49.278728,
      "links_count": 56,
      "obj_id": 2990,
      "id": 495
    },
    {
      "name": "Rostov Na Donu",
      "city": "Rostov",
      "country": "Russia",
      "iata_code": "ROV",
      "latitude": 47.258208,
      "longitude": 39.818089,
      "links_count": 56,
      "obj_id": 2964,
      "id": 496
    },
    {
      "name": "Port Vila Bauerfield",
      "city": "Port-vila",
      "country": "Vanuatu",
      "iata_code": "VLI",
      "latitude": -17.699325,
      "longitude": 168.319794,
      "links_count": 56,
      "obj_id": 1997,
      "id": 497
    },
    {
      "name": "Philip S W Goldson Intl",
      "city": "Belize City",
      "country": "Belize",
      "iata_code": "BZE",
      "latitude": 17.539144,
      "longitude": -88.308203,
      "links_count": 56,
      "obj_id": 1957,
      "id": 498
    },
    {
      "name": "Trapani Birgi",
      "city": "Trapani",
      "country": "Italy",
      "iata_code": "TPS",
      "latitude": 37.911403,
      "longitude": 12.487961,
      "links_count": 56,
      "obj_id": 1515,
      "id": 499
    },
    {
      "name": "Inezgane",
      "city": "Agadir",
      "country": "Morocco",
      "iata_code": "AGA",
      "latitude": 30.381353,
      "longitude": -9.546311,
      "links_count": 56,
      "obj_id": 1064,
      "id": 500
    },
    {
      "name": "Tulsa Intl",
      "city": "Tulsa",
      "country": "United States",
      "iata_code": "TUL",
      "latitude": 36.198389,
      "longitude": -95.888111,
      "links_count": 55,
      "obj_id": 3855,
      "id": 501
    },
    {
      "name": "Theodore Francis Green State",
      "city": "Providence",
      "country": "United States",
      "iata_code": "PVD",
      "latitude": 41.732581,
      "longitude": -71.420383,
      "links_count": 55,
      "obj_id": 3641,
      "id": 502
    },
    {
      "name": "Senou",
      "city": "Bamako",
      "country": "Mali",
      "iata_code": "BKO",
      "latitude": 12.533544,
      "longitude": -7.949944,
      "links_count": 55,
      "obj_id": 1044,
      "id": 503
    },
    {
      "name": "Ndjili Intl",
      "city": "Kinshasa",
      "country": "Congo (Kinshasa)",
      "iata_code": "FIH",
      "latitude": -4.38575,
      "longitude": 15.444569,
      "links_count": 55,
      "obj_id": 1020,
      "id": 504
    },
    {
      "name": "Ivato",
      "city": "Antananarivo",
      "country": "Madagascar",
      "iata_code": "TNR",
      "latitude": -18.79695,
      "longitude": 47.478806,
      "links_count": 54,
      "obj_id": 918,
      "id": 505
    },
    {
      "name": "Bromma",
      "city": "Stockholm",
      "country": "Sweden",
      "iata_code": "BMA",
      "latitude": 59.354372,
      "longitude": 17.94165,
      "links_count": 54,
      "obj_id": 738,
      "id": 506
    },
    {
      "name": "Kurumoch",
      "city": "Samara",
      "country": "Russia",
      "iata_code": "KUF",
      "latitude": 53.5,
      "longitude": 50.15,
      "links_count": 54,
      "obj_id": 4118,
      "id": 507
    },
    {
      "name": "Hang Nadim",
      "city": "Batam",
      "country": "Indonesia",
      "iata_code": "BTH",
      "latitude": 1.121028,
      "longitude": 104.118753,
      "links_count": 54,
      "obj_id": 3903,
      "id": 508
    },
    {
      "name": "Fairbanks Intl",
      "city": "Fairbanks",
      "country": "United States",
      "iata_code": "FAI",
      "latitude": 64.815114,
      "longitude": -147.856267,
      "links_count": 54,
      "obj_id": 3832,
      "id": 509
    },
    {
      "name": "Kabul Intl",
      "city": "Kabul",
      "country": "Afghanistan",
      "iata_code": "KBL",
      "latitude": 34.565853,
      "longitude": 69.212328,
      "links_count": 54,
      "obj_id": 2050,
      "id": 510
    },
    {
      "name": "Warsaw Modlin",
      "city": "Warsaw",
      "country": "Poland",
      "iata_code": "WMI",
      "latitude": 52.451111,
      "longitude": 20.651667,
      "links_count": 52,
      "obj_id": 8414,
      "id": 511
    },
    {
      "name": "Langnes",
      "city": "Tromso",
      "country": "Norway",
      "iata_code": "TOS",
      "latitude": 69.683333,
      "longitude": 18.918919,
      "links_count": 52,
      "obj_id": 663,
      "id": 512
    },
    {
      "name": "Tunxi International Airport",
      "city": "Huangshan",
      "country": "China",
      "iata_code": "TXN",
      "latitude": 29.7333,
      "longitude": 118.256,
      "links_count": 52,
      "obj_id": 6387,
      "id": 513
    },
    {
      "name": "Syracuse Hancock Intl",
      "city": "Syracuse",
      "country": "United States",
      "iata_code": "SYR",
      "latitude": 43.111187,
      "longitude": -76.106311,
      "links_count": 52,
      "obj_id": 3745,
      "id": 514
    },
    {
      "name": "Kuching Intl",
      "city": "Kuching",
      "country": "Malaysia",
      "iata_code": "KCH",
      "latitude": 1.484697,
      "longitude": 110.346933,
      "links_count": 52,
      "obj_id": 3263,
      "id": 515
    },
    {
      "name": "Sochi",
      "city": "Sochi",
      "country": "Russia",
      "iata_code": "AER",
      "latitude": 43.449928,
      "longitude": 39.956589,
      "links_count": 52,
      "obj_id": 2965,
      "id": 516
    },
    {
      "name": "Knevichi",
      "city": "Vladivostok",
      "country": "Russia",
      "iata_code": "VVO",
      "latitude": 43.398953,
      "longitude": 132.148017,
      "links_count": 52,
      "obj_id": 2934,
      "id": 517
    },
    {
      "name": "Jose Maria Cordova",
      "city": "Rio Negro",
      "country": "Colombia",
      "iata_code": "MDE",
      "latitude": 6.164536,
      "longitude": -75.423119,
      "links_count": 52,
      "obj_id": 2745,
      "id": 518
    },
    {
      "name": "Zadar",
      "city": "Zadar",
      "country": "Croatia",
      "iata_code": "ZAD",
      "latitude": 44.108269,
      "longitude": 15.346697,
      "links_count": 52,
      "obj_id": 1209,
      "id": 519
    },
    {
      "name": "Maya Maya",
      "city": "Brazzaville",
      "country": "Congo (Brazzaville)",
      "iata_code": "BZV",
      "latitude": -4.2517,
      "longitude": 15.253031,
      "links_count": 51,
      "obj_id": 883,
      "id": 520
    },
    {
      "name": "Piedmont Triad",
      "city": "Greensboro",
      "country": "United States",
      "iata_code": "GSO",
      "latitude": 36.09775,
      "longitude": -79.937306,
      "links_count": 51,
      "obj_id": 4008,
      "id": 521
    },
    {
      "name": "Palm Springs Intl",
      "city": "Palm Springs",
      "country": "United States",
      "iata_code": "PSP",
      "latitude": 33.829667,
      "longitude": -116.506694,
      "links_count": 51,
      "obj_id": 3839,
      "id": 522
    },
    {
      "name": "El Alto Intl",
      "city": "La Paz",
      "country": "Bolivia",
      "iata_code": "LPB",
      "latitude": -16.513339,
      "longitude": -68.192256,
      "links_count": 51,
      "obj_id": 2762,
      "id": 523
    },
    {
      "name": "Owen Roberts Intl",
      "city": "Georgetown",
      "country": "Cayman Islands",
      "iata_code": "GCM",
      "latitude": 19.292778,
      "longitude": -81.35775,
      "links_count": 51,
      "obj_id": 1926,
      "id": 524
    },
    {
      "name": "Ordos Ejin Horo",
      "city": "Dongsheng",
      "country": "China",
      "iata_code": "DSN",
      "latitude": 39.85,
      "longitude": 110.033,
      "links_count": 50,
      "obj_id": 6434,
      "id": 525
    },
    {
      "name": "Ontario Intl",
      "city": "Ontario",
      "country": "United States",
      "iata_code": "ONT",
      "latitude": 34.056,
      "longitude": -117.601194,
      "links_count": 50,
      "obj_id": 3734,
      "id": 526
    },
    {
      "name": "Wattay Intl",
      "city": "Vientiane",
      "country": "Laos",
      "iata_code": "VTE",
      "latitude": 17.988322,
      "longitude": 102.563256,
      "links_count": 50,
      "obj_id": 3120,
      "id": 527
    },
    {
      "name": "Lamezia Terme",
      "city": "Lamezia",
      "country": "Italy",
      "iata_code": "SUF",
      "latitude": 38.905394,
      "longitude": 16.242269,
      "links_count": 50,
      "obj_id": 1508,
      "id": 528
    },
    {
      "name": "Benina",
      "city": "Benghazi",
      "country": "Libya",
      "iata_code": "BEN",
      "latitude": 32.096786,
      "longitude": 20.269472,
      "links_count": 50,
      "obj_id": 1154,
      "id": 529
    },
    {
      "name": "Exeter",
      "city": "Exeter",
      "country": "United Kingdom",
      "iata_code": "EXT",
      "latitude": 50.734444,
      "longitude": -3.413889,
      "links_count": 49,
      "obj_id": 552,
      "id": 530
    },
    {
      "name": "Nome",
      "city": "Nome",
      "country": "United States",
      "iata_code": "OME",
      "latitude": 64.512203,
      "longitude": -165.445247,
      "links_count": 49,
      "obj_id": 3615,
      "id": 531
    },
    {
      "name": "Leon M Ba",
      "city": "Libreville",
      "country": "Gabon",
      "iata_code": "LBV",
      "latitude": 0.4586,
      "longitude": 9.412283,
      "links_count": 48,
      "obj_id": 970,
      "id": 532
    },
    {
      "name": "Yichang Airport",
      "city": "Yichang",
      "country": "China",
      "iata_code": "YIH",
      "latitude": 30.671,
      "longitude": 111.441,
      "links_count": 48,
      "obj_id": 6361,
      "id": 533
    },
    {
      "name": "NW Arkansas Regional",
      "city": "Bentonville",
      "country": "United States",
      "iata_code": "XNA",
      "latitude": 36.2818694,
      "longitude": -94.3068111,
      "links_count": 48,
      "obj_id": 4356,
      "id": 534
    },
    {
      "name": "Honiara International",
      "city": "Honiara",
      "country": "Solomon Islands",
      "iata_code": "HIR",
      "latitude": -9.428,
      "longitude": 160.054789,
      "links_count": 48,
      "obj_id": 4074,
      "id": 535
    },
    {
      "name": "Jinghong",
      "city": "Jinghong",
      "country": "China",
      "iata_code": "JHG",
      "latitude": 21.973914,
      "longitude": 100.759611,
      "links_count": 48,
      "obj_id": 4055,
      "id": 536
    },
    {
      "name": "Miri",
      "city": "Miri",
      "country": "Malaysia",
      "iata_code": "MYY",
      "latitude": 4.322014,
      "longitude": 113.986806,
      "links_count": 48,
      "obj_id": 3266,
      "id": 537
    },
    {
      "name": "Viru Viru Intl",
      "city": "Santa Cruz",
      "country": "Bolivia",
      "iata_code": "VVI",
      "latitude": -17.644756,
      "longitude": -63.135364,
      "links_count": 48,
      "obj_id": 2771,
      "id": 538
    },
    {
      "name": "Ahwaz",
      "city": "Ahwaz",
      "country": "Iran",
      "iata_code": "AWZ",
      "latitude": 31.337431,
      "longitude": 48.76195,
      "links_count": 48,
      "obj_id": 2104,
      "id": 539
    },
    {
      "name": "Toussaint Louverture Intl",
      "city": "Port-au-prince",
      "country": "Haiti",
      "iata_code": "PAP",
      "latitude": 18.58005,
      "longitude": -72.292542,
      "links_count": 48,
      "obj_id": 1897,
      "id": 540
    },
    {
      "name": "General Ignacio P Garcia Intl",
      "city": "Hermosillo",
      "country": "Mexico",
      "iata_code": "HMO",
      "latitude": 29.095858,
      "longitude": -111.047858,
      "links_count": 48,
      "obj_id": 1807,
      "id": 541
    },
    {
      "name": "Skopje",
      "city": "Skopje",
      "country": "Macedonia",
      "iata_code": "SKP",
      "latitude": 41.961622,
      "longitude": 21.621381,
      "links_count": 48,
      "obj_id": 1737,
      "id": 542
    },
    {
      "name": "Mediterranee",
      "city": "Montpellier",
      "country": "France",
      "iata_code": "MPL",
      "latitude": 43.576194,
      "longitude": 3.963014,
      "links_count": 48,
      "obj_id": 1359,
      "id": 543
    },
    {
      "name": "Rankin Inlet",
      "city": "Rankin Inlet",
      "country": "Canada",
      "iata_code": "YRT",
      "latitude": 62.81139,
      "longitude": -92.115833,
      "links_count": 48,
      "obj_id": 132,
      "id": 544
    },
    {
      "name": "El Paso Intl",
      "city": "El Paso",
      "country": "United States",
      "iata_code": "ELP",
      "latitude": 31.80725,
      "longitude": -106.377583,
      "links_count": 47,
      "obj_id": 3559,
      "id": 545
    },
    {
      "name": "Ponta Delgada",
      "city": "Ponta Delgada",
      "country": "Portugal",
      "iata_code": "PDL",
      "latitude": 37.741184,
      "longitude": -25.69787,
      "links_count": 47,
      "obj_id": 1633,
      "id": 546
    },
    {
      "name": "Allgau",
      "city": "Memmingen",
      "country": "Germany",
      "iata_code": "FMM",
      "latitude": 47.988758,
      "longitude": 10.2395,
      "links_count": 46,
      "obj_id": 3986,
      "id": 547
    },
    {
      "name": "Savannah Hilton Head Intl",
      "city": "Savannah",
      "country": "United States",
      "iata_code": "SAV",
      "latitude": 32.127583,
      "longitude": -81.202139,
      "links_count": 46,
      "obj_id": 3613,
      "id": 548
    },
    {
      "name": "Westchester Co",
      "city": "White Plains",
      "country": "United States",
      "iata_code": "HPN",
      "latitude": 41.066959,
      "longitude": -73.707575,
      "links_count": 46,
      "obj_id": 3589,
      "id": 549
    },
    {
      "name": "Brunei Intl",
      "city": "Bandar Seri Begawan",
      "country": "Brunei",
      "iata_code": "BWN",
      "latitude": 4.9442,
      "longitude": 114.928353,
      "links_count": 46,
      "obj_id": 3272,
      "id": 550
    },
    {
      "name": "Ufa",
      "city": "Ufa",
      "country": "Russia",
      "iata_code": "UFA",
      "latitude": 54.557511,
      "longitude": 55.874417,
      "links_count": 46,
      "obj_id": 2992,
      "id": 551
    },
    {
      "name": "Le Lamentin",
      "city": "Fort-de-france",
      "country": "Martinique",
      "iata_code": "FDF",
      "latitude": 14.591033,
      "longitude": -61.003175,
      "links_count": 46,
      "obj_id": 2878,
      "id": 552
    },
    {
      "name": "Grantley Adams Intl",
      "city": "Bridgetown",
      "country": "Barbados",
      "iata_code": "BGI",
      "latitude": 13.074603,
      "longitude": -59.492456,
      "links_count": 46,
      "obj_id": 2875,
      "id": 553
    },
    {
      "name": "Carrasco Intl",
      "city": "Montevideo",
      "country": "Uruguay",
      "iata_code": "MVD",
      "latitude": -34.838417,
      "longitude": -56.030806,
      "links_count": 46,
      "obj_id": 2816,
      "id": 554
    },
    {
      "name": "La Mesa Intl",
      "city": "San Pedro Sula",
      "country": "Honduras",
      "iata_code": "SAP",
      "latitude": 15.452639,
      "longitude": -87.923556,
      "links_count": 46,
      "obj_id": 1772,
      "id": 555
    },
    {
      "name": "Roschino",
      "city": "Tyumen",
      "country": "Russia",
      "iata_code": "TJM",
      "latitude": 57.189567,
      "longitude": 65.3243,
      "links_count": 45,
      "obj_id": 4111,
      "id": 556
    },
    {
      "name": "Ralph Wien Mem",
      "city": "Kotzebue",
      "country": "United States",
      "iata_code": "OTZ",
      "latitude": 66.884678,
      "longitude": -162.59855,
      "links_count": 45,
      "obj_id": 3693,
      "id": 557
    },
    {
      "name": "Daniel Oduber Quiros Intl",
      "city": "Liberia",
      "country": "Costa Rica",
      "iata_code": "LIR",
      "latitude": 10.593289,
      "longitude": -85.544408,
      "links_count": 45,
      "obj_id": 1881,
      "id": 558
    },
    {
      "name": "Akron Canton Regional Airport",
      "city": "Akron",
      "country": "United States",
      "iata_code": "CAK",
      "latitude": 40.9160833,
      "longitude": -81.4421944,
      "links_count": 44,
      "obj_id": 4112,
      "id": 559
    },
    {
      "name": "Aden Intl",
      "city": "Aden",
      "country": "Yemen",
      "iata_code": "ADE",
      "latitude": 12.829542,
      "longitude": 45.028792,
      "links_count": 44,
      "obj_id": 3977,
      "id": 560
    },
    {
      "name": "Ketchikan Intl",
      "city": "Ketchikan",
      "country": "United States",
      "iata_code": "KTN",
      "latitude": 55.355556,
      "longitude": -131.71375,
      "links_count": 44,
      "obj_id": 3808,
      "id": 561
    },
    {
      "name": "Dresden",
      "city": "Dresden",
      "country": "Germany",
      "iata_code": "DRS",
      "latitude": 51.132767,
      "longitude": 13.767161,
      "links_count": 44,
      "obj_id": 338,
      "id": 562
    },
    {
      "name": "Mineralnyye Vody",
      "city": "Mineralnye Vody",
      "country": "Russia",
      "iata_code": "MRV",
      "latitude": 44.225072,
      "longitude": 43.081889,
      "links_count": 44,
      "obj_id": 2962,
      "id": 563
    },
    {
      "name": "Zhuliany Intl",
      "city": "Kiev",
      "country": "Ukraine",
      "iata_code": "IEV",
      "latitude": 50.401694,
      "longitude": 30.449697,
      "links_count": 44,
      "obj_id": 2944,
      "id": 564
    },
    {
      "name": "Sept Iles",
      "city": "Sept-iles",
      "country": "Canada",
      "iata_code": "YZV",
      "latitude": 50.223333,
      "longitude": -66.265556,
      "links_count": 44,
      "obj_id": 202,
      "id": 565
    },
    {
      "name": "Casale",
      "city": "Brindisi",
      "country": "Italy",
      "iata_code": "BDS",
      "latitude": 40.657633,
      "longitude": 17.947033,
      "links_count": 44,
      "obj_id": 1506,
      "id": 566
    },
    {
      "name": "Freetown Lungi",
      "city": "Freetown",
      "country": "Sierra Leone",
      "iata_code": "FNA",
      "latitude": 8.616444,
      "longitude": -13.195489,
      "links_count": 44,
      "obj_id": 1059,
      "id": 567
    },
    {
      "name": "Mianyang Airport",
      "city": "Mianyang",
      "country": "China",
      "iata_code": "MIG",
      "latitude": 31.4281,
      "longitude": 104.741,
      "links_count": 43,
      "obj_id": 6400,
      "id": 568
    },
    {
      "name": "Santa Genoveva",
      "city": "Goiania",
      "country": "Brazil",
      "iata_code": "GYN",
      "latitude": -16.632033,
      "longitude": -49.220686,
      "links_count": 43,
      "obj_id": 2562,
      "id": 569
    },
    {
      "name": "St Johns Intl",
      "city": "St. John's",
      "country": "Canada",
      "iata_code": "YYT",
      "latitude": 47.61861,
      "longitude": -52.751945,
      "links_count": 43,
      "obj_id": 189,
      "id": 570
    },
    {
      "name": "Jerez",
      "city": "Jerez",
      "country": "Spain",
      "iata_code": "XRY",
      "latitude": 36.744622,
      "longitude": -6.060111,
      "links_count": 43,
      "obj_id": 1226,
      "id": 571
    },
    {
      "name": "Durban Intl",
      "city": "Durban",
      "country": "South Africa",
      "iata_code": "DUR",
      "latitude": -29.970089,
      "longitude": 30.950519,
      "links_count": 42,
      "obj_id": 799,
      "id": 572
    },
    {
      "name": "Save",
      "city": "Gothenborg",
      "country": "Sweden",
      "iata_code": "GSE",
      "latitude": 57.774722,
      "longitude": 11.870372,
      "links_count": 42,
      "obj_id": 691,
      "id": 573
    },
    {
      "name": "Lawica",
      "city": "Poznan",
      "country": "Poland",
      "iata_code": "POZ",
      "latitude": 52.421031,
      "longitude": 16.826325,
      "links_count": 42,
      "obj_id": 674,
      "id": 574
    },
    {
      "name": "Dayong Airport",
      "city": "Dayong",
      "country": "China",
      "iata_code": "DYG",
      "latitude": 29.1028,
      "longitude": 110.443,
      "links_count": 42,
      "obj_id": 6353,
      "id": 575
    },
    {
      "name": "Prestwick",
      "city": "Prestwick",
      "country": "United Kingdom",
      "iata_code": "PIK",
      "latitude": 55.509444,
      "longitude": -4.586667,
      "links_count": 42,
      "obj_id": 537,
      "id": 576
    },
    {
      "name": "Belfast City",
      "city": "Belfast",
      "country": "United Kingdom",
      "iata_code": "BHD",
      "latitude": 54.618056,
      "longitude": -5.8725,
      "links_count": 42,
      "obj_id": 467,
      "id": 577
    },
    {
      "name": "Aktau",
      "city": "Aktau",
      "country": "Kazakhstan",
      "iata_code": "SCO",
      "latitude": 43.86005,
      "longitude": 51.091978,
      "links_count": 42,
      "obj_id": 4367,
      "id": 578
    },
    {
      "name": "Husein Sastranegara",
      "city": "Bandung",
      "country": "Indonesia",
      "iata_code": "BDO",
      "latitude": -6.900625,
      "longitude": 107.576294,
      "links_count": 42,
      "obj_id": 3896,
      "id": 579
    },
    {
      "name": "Lihue",
      "city": "Lihue",
      "country": "United States",
      "iata_code": "LIH",
      "latitude": 21.975983,
      "longitude": -159.338958,
      "links_count": 42,
      "obj_id": 3602,
      "id": 580
    },
    {
      "name": "Pensacola Rgnl",
      "city": "Pensacola",
      "country": "United States",
      "iata_code": "PNS",
      "latitude": 30.473425,
      "longitude": -87.186611,
      "links_count": 42,
      "obj_id": 3564,
      "id": 581
    },
    {
      "name": "Sam Ratulangi",
      "city": "Manado",
      "country": "Indonesia",
      "iata_code": "MDC",
      "latitude": 1.549447,
      "longitude": 124.925878,
      "links_count": 42,
      "obj_id": 3250,
      "id": 582
    },
    {
      "name": "Hercilio Luz",
      "city": "Florianopolis",
      "country": "Brazil",
      "iata_code": "FLN",
      "latitude": -27.670489,
      "longitude": -48.547181,
      "links_count": 42,
      "obj_id": 2555,
      "id": 583
    },
    {
      "name": "Pristina",
      "city": "Pristina",
      "country": "Serbia",
      "iata_code": "PRN",
      "latitude": 42.572778,
      "longitude": 21.035833,
      "links_count": 42,
      "obj_id": 1742,
      "id": 584
    },
    {
      "name": "Cluj Napoca",
      "city": "Cluj-napoca",
      "country": "Romania",
      "iata_code": "CLJ",
      "latitude": 46.785167,
      "longitude": 23.686167,
      "links_count": 42,
      "obj_id": 1652,
      "id": 585
    },
    {
      "name": "Aalborg",
      "city": "Aalborg",
      "country": "Denmark",
      "iata_code": "AAL",
      "latitude": 57.092789,
      "longitude": 9.849164,
      "links_count": 41,
      "obj_id": 628,
      "id": 586
    },
    {
      "name": "Kona Intl At Keahole",
      "city": "Kona",
      "country": "United States",
      "iata_code": "KOA",
      "latitude": 19.738767,
      "longitude": -156.045631,
      "links_count": 41,
      "obj_id": 3514,
      "id": 587
    },
    {
      "name": "Boise Air Terminal",
      "city": "Boise",
      "country": "United States",
      "iata_code": "BOI",
      "latitude": 43.564361,
      "longitude": -116.222861,
      "links_count": 41,
      "obj_id": 3495,
      "id": 588
    },
    {
      "name": "Chinggis Khaan Intl",
      "city": "Ulan Bator",
      "country": "Mongolia",
      "iata_code": "ULN",
      "latitude": 47.843056,
      "longitude": 106.766639,
      "links_count": 41,
      "obj_id": 3380,
      "id": 589
    }
]